[
    {
        "urn_id": "ACoAADwwwSYBksmiyEYK5C7hk8LseakwOdI71Rk",
        "distance": "DISTANCE_1",
        "jobtitle": "2X Azure Certified | BTech\u201924",
        "location": "Rajkot",
        "name": "Mansi Vaghasiya",
        "latitude": 22.3053263,
        "longitude": 70.8028377
    },
    {
        "urn_id": "ACoAADVLE8YBaBPNXsONKrEEAqVu29VLcrAibmQ",
        "distance": "DISTANCE_1",
        "jobtitle": "Computer Engineering student",
        "location": "Surat",
        "name": "Krish Goyani",
        "latitude": 45.9383,
        "longitude": 3.2553
    },
    {
        "urn_id": "ACoAADcwsTkBr-GQ1jGKQ2r2JVUn0ohygFScwMs",
        "distance": "DISTANCE_1",
        "jobtitle": "Student at CHAROTAR UNIVERSITY OF SCIENCE AND TECHNOLOGY",
        "location": "Anand",
        "name": "Nirali Brahmbhatt",
        "latitude": 22.5586555,
        "longitude": 72.9627227
    },
    {
        "urn_id": "ACoAACp3lG4BymovkyzED85nEzem2_yDLNHv_-o",
        "distance": "DISTANCE_1",
        "jobtitle": "Data Science | Data Analytics | ML",
        "location": "Surat",
        "name": "Alish Tadhani",
        "latitude": 45.9383,
        "longitude": 3.2553
    },
    {
        "urn_id": "ACoAADUWxDwB_Qb5wPEjkPJ-pEqEBMt_BX-0vQs",
        "distance": "DISTANCE_1",
        "jobtitle": "Data Science | 2X Microsoft Azure Certified | Student at CHAROTAR UNIVERSITY OF SCIENCE AND TECHNOLOGY",
        "location": "Dhrangadhra",
        "name": "Vishva Patel",
        "latitude": 22.9914292,
        "longitude": 71.4663753
    },
    {
        "urn_id": "ACoAADcDhPUBQPWyhhA7iIdkyQ-NI8kOdJjz35U",
        "distance": "DISTANCE_1",
        "jobtitle": "1x Microsoft Certified || Cloud Enthusiast || Web Developer.",
        "location": "Valsad",
        "name": "Krish Shah",
        "latitude": 20.5,
        "longitude": 73.083333
    },
    {
        "urn_id": "ACoAAERlRSwBCrYRzixuFzJ3BPwsUtQXGMYihJI",
        "distance": "DISTANCE_1",
        "jobtitle": "Java Developer",
        "location": "Surat",
        "name": "Vruti Ribadiya",
        "latitude": 45.9383,
        "longitude": 3.2553
    },
    {
        "urn_id": "ACoAAEH1y4gB-S_KUJBJ_nmvJnUJxguPrRadTDs",
        "distance": "DISTANCE_1",
        "jobtitle": "Versatile Developer | Python | Excel & SQL Data Management | Power BI Visualization | Django Web Framework",
        "location": "Surat",
        "name": "Viral Rathod",
        "latitude": 45.9383,
        "longitude": 3.2553
    },
    {
        "urn_id": "ACoAADpafhkBwAfIeuCfzFlaoEgXwEYDrcgdaQo",
        "distance": "DISTANCE_1",
        "jobtitle": "Data Science Enthusiast",
        "location": "Ahmedabad",
        "name": "Vidhan Padsala",
        "latitude": 23.0216238,
        "longitude": 72.5797068
    },
    {
        "urn_id": "ACoAADQseFEBm0g6o4Vp4g1mBjOYaDmPmD7tRNg",
        "distance": "DISTANCE_1",
        "jobtitle": "MACHINE LEARNING | DEEP LEARNING | OPEN CV | PYTHON | FLUTTER",
        "location": "Rajkot",
        "name": "Prit Dalsaniya",
        "latitude": 22.3053263,
        "longitude": 70.8028377
    },
    {
        "urn_id": "ACoAADd1VYoB175Is6vsRPMo4jcLwlNEt7SZhtg",
        "distance": "DISTANCE_1",
        "jobtitle": "AI | ML | Data Science | Project Management | Agile | B.Tech(IT)",
        "location": "Anklesvar",
        "name": "Jaimit Savaliya",
        "latitude": 21.63236,
        "longitude": 72.99001
    },
    {
        "urn_id": "ACoAADWW_NQBsqg-jXztHE8eLVfvKgA_hEYTZSU",
        "distance": "DISTANCE_1",
        "jobtitle": "Full-stack Developer at TARA INTERNATIONAL",
        "location": "Vadodara",
        "name": "Jignesh saidane",
        "latitude": 22.2973142,
        "longitude": 73.1942567
    },
    {
        "urn_id": "ACoAADpcJzEBBk-KBAp3vWFdrpJXxttTQLrQkEc",
        "distance": "DISTANCE_1",
        "jobtitle": "Business Development Executive",
        "location": "Anand",
        "name": "Nisarg Shah",
        "latitude": 22.5586555,
        "longitude": 72.9627227
    },
    {
        "urn_id": "ACoAADcxnysBgFF2xCA3zKvqpDcCzPr2X2yMvCA",
        "distance": "DISTANCE_1",
        "jobtitle": "Unity Development | Flutter | Firebase",
        "location": "Vadodara",
        "name": "Bhavya Parekh",
        "latitude": 22.2973142,
        "longitude": 73.1942567
    },
    {
        "urn_id": "ACoAACWvH6IBOBva6Td-jmLXXdv4lA5a-2OtS2s",
        "distance": "DISTANCE_1",
        "jobtitle": "Flutter | Android Developer",
        "location": "Rajkot",
        "name": "Jay Moliya",
        "latitude": 22.3053263,
        "longitude": 70.8028377
    },
    {
        "urn_id": "ACoAADD9HXUBlMGjc66VwUGIGCwAWZushzDU9MA",
        "distance": "DISTANCE_1",
        "jobtitle": "Ex-Intern @Papaya Coders | Mobile App Developer",
        "location": "Mahesana",
        "name": "Prince Patel",
        "latitude": 23.6015557,
        "longitude": 72.3867981
    },
    {
        "urn_id": "ACoAADT806IBqke-HmC_vRxYjlQwDqnGdYmAxu4",
        "distance": "DISTANCE_1",
        "jobtitle": "Intern at Crest Data System as Software Engineer Full Stack Web developer || MERN stack || Django",
        "location": "Valsad",
        "name": "Kishan Patel",
        "latitude": 20.5,
        "longitude": 73.083333
    },
    {
        "urn_id": "ACoAAD-TgksBGbt27riE7_g30NVwkxCf_jfDq8w",
        "distance": "DISTANCE_1",
        "jobtitle": "Python Developer || Student @ V.V.P Engineering College",
        "location": "Rajkot",
        "name": "Karan Longani",
        "latitude": 22.3053263,
        "longitude": 70.8028377
    },
    {
        "urn_id": "ACoAADTOuy8BmMGymQHzyiwu94jHeYEuHit0woc",
        "distance": "DISTANCE_1",
        "jobtitle": "Student at CHAROTAR UNIVERSITY OF SCIENCE AND TECHNOLOGY",
        "location": "Anand",
        "name": "Sanket Bhimani",
        "latitude": 22.5586555,
        "longitude": 72.9627227
    },
    {
        "urn_id": "ACoAADOJ4BABjPIxL6vX5dtLu72LQQW021ejUX8",
        "distance": "DISTANCE_1",
        "jobtitle": "1 x AWS Certified (CP) || 2 x Microsoft (AZ-900, PL-900) || DevOps || AWS Cloudian",
        "location": "Surat",
        "name": "Bhoomil Dayani",
        "latitude": 45.9383,
        "longitude": 3.2553
    },
    {
        "urn_id": "ACoAABVoiLQBp5OFUsksYeZidqiaGXSNHIwVmYQ",
        "distance": "DISTANCE_1",
        "jobtitle": "IT Analyst at Tata Consultancy Services",
        "location": "Ahmedabad",
        "name": "Ravi Usadadiya",
        "latitude": 23.0216238,
        "longitude": 72.5797068
    },
    {
        "urn_id": "ACoAADgDYOgBMJ_HBEu86Y86zzDOICRIwdLXQks",
        "distance": "DISTANCE_1",
        "jobtitle": "Student at Shri S'ad Vidya Mandal Institute Of Technology",
        "location": "Bharuch",
        "name": "Himil Prajapati",
        "latitude": 21.75,
        "longitude": 73.0
    },
    {
        "urn_id": "ACoAADEoeoABqWR9Yhx2sx1rMdQKPqVipjDPW0Y",
        "distance": "DISTANCE_1",
        "jobtitle": "Cybersecurity professional for protecting sensitive data, mitigating cyberthreat. Learning conducting security audits, vulnerability management , and patch management. implementing security controls for compliance.",
        "location": "Surat",
        "name": "Parth Vyas",
        "latitude": 45.9383,
        "longitude": 3.2553
    },
    {
        "urn_id": "ACoAADOXLx4BQ-QQVlSZTxVTch3i1_ixJSryan0",
        "distance": "DISTANCE_1",
        "jobtitle": "Graduate Engineer Trainee at Reliance industries Ltd, Dahej || DDU'23 || Chemical Engineer",
        "location": "Rajkot",
        "name": "Heet Padaria",
        "latitude": 22.3053263,
        "longitude": 70.8028377
    },
    {
        "urn_id": "ACoAADRb37MB35yD-5ndrl1zQ-3GZjt1f4PINMI",
        "distance": "DISTANCE_1",
        "jobtitle": "Student at CHAROTAR UNIVERSITY OF SCIENCE AND TECHNOLOGY",
        "location": "Surat Taluka",
        "name": "Meet Bharodiya",
        "latitude": 21.2094892,
        "longitude": 72.8317058
    },
    {
        "urn_id": "ACoAADREf7oBvlQyG957wBAAdYz8dQVi9adPgmk",
        "distance": "DISTANCE_1",
        "jobtitle": "SDE Intern @Tatvasoft || Devops || MERN Stack Developer",
        "location": "Rajkot",
        "name": "Parth Trivedi",
        "latitude": 22.3053263,
        "longitude": 70.8028377
    },
    {
        "urn_id": "ACoAADsA0ZQBqo_bRR_1WPjb3dXrAJzH68eE9D4",
        "distance": "DISTANCE_1",
        "jobtitle": "Student at CHAROTAR UNIVERSITY OF SCIENCE AND TECHNOLOGY",
        "location": "Surat",
        "name": "Dhruvi Ramaiya",
        "latitude": 45.9383,
        "longitude": 3.2553
    },
    {
        "urn_id": "ACoAACuViFEBg3P_zL-auv3c7DSv1-bssmPYcFE",
        "distance": "DISTANCE_1",
        "jobtitle": "Sr. Machine Learning Engineer at Codezee Solutions Private Limited",
        "location": "Surat",
        "name": "Khantil Thummar",
        "latitude": 45.9383,
        "longitude": 3.2553
    },
    {
        "urn_id": "ACoAADQXjdQBnLUPUbeGopIb_70N14_yWHAlA_w",
        "distance": "DISTANCE_1",
        "jobtitle": "Software Engineer Intern @Rejoicehub LLP | AI/ML Enthusiast | Experience Building apps in Flutter | GATE CSE - 2023 Qualified | CE '24 DDU",
        "location": "Surat",
        "name": "NIL MAKVANA",
        "latitude": 45.9383,
        "longitude": 3.2553
    },
    {
        "urn_id": "ACoAADVNHwUB5HxUP9LrufR3hxGwlrZnazdgHNc",
        "distance": "DISTANCE_1",
        "jobtitle": "Intern at @Zignuts Technolab || Student Representative (CDPC CHARUSAT) || App Developer || Flutter || IT\u201924 Student @ CSPIT",
        "location": "Jamnagar",
        "name": "Jeet Matalia",
        "latitude": 22.4732415,
        "longitude": 70.0552102
    },
    {
        "urn_id": "ACoAADZPE1EBdvLyfUNZ8cPKH9_AWbBKT4NggtM",
        "distance": "DISTANCE_1",
        "jobtitle": "AWS 1X Certified | AWS cloud Practitioner | Student at CHAROTAR UNIVERSITY OF SCIENCE AND TECHNOLOGY | Freelancer",
        "location": "Surat",
        "name": "Raj Beladiya",
        "latitude": 45.9383,
        "longitude": 3.2553
    },
    {
        "urn_id": "ACoAADQWj28Bt1mYpZ9z49hU5V1WfEU9FSg3A7Y",
        "distance": "DISTANCE_1",
        "jobtitle": "Machine Learning Intern at Intellica.AI | Rootle.AI || Machine Learning Enthusiast || Data Science Explorer",
        "location": "Surat",
        "name": "Kishan Kachhadiya",
        "latitude": 45.9383,
        "longitude": 3.2553
    },
    {
        "urn_id": "ACoAADjsX9sBIofmmKGqfzBrvJKhHOon8LR4YJg",
        "distance": "DISTANCE_1",
        "jobtitle": "MERN Stack | Web Dev | Java | CP",
        "location": "Anand",
        "name": "Rushil Patel",
        "latitude": 22.5586555,
        "longitude": 72.9627227
    },
    {
        "urn_id": "ACoAAEUjJMEBOlb_bVYT-3PFT0chtGu1lgEcCfI",
        "distance": "DISTANCE_1",
        "jobtitle": "Student at CHAROTAR UNIVERSITY OF SCIENCE AND TECHNOLOGY",
        "location": "Nadiad",
        "name": "Trushil Patel",
        "latitude": 22.6895535,
        "longitude": 72.8713603
    },
    {
        "urn_id": "ACoAADeRZeoBlMpFvIiD-6b9oT-CHMh52Uj6kaw",
        "distance": "DISTANCE_1",
        "jobtitle": "Software Developer Intern at IBM",
        "location": "Surat",
        "name": "Yash Bhuva",
        "latitude": 45.9383,
        "longitude": 3.2553
    },
    {
        "urn_id": "ACoAADVy7wgB8_dMdkrxL34ZaoNLz_np--oD6UI",
        "distance": "DISTANCE_1",
        "jobtitle": "DevOps intern @ Inventyv || DevOps || AWS Cloud",
        "location": "Ahmedabad",
        "name": "Raj Chauhan",
        "latitude": 23.0216238,
        "longitude": 72.5797068
    },
    {
        "urn_id": "ACoAADRmNNMBMZuAO8nOm7VdnaXmjUYeLAbYppE",
        "distance": "DISTANCE_1",
        "jobtitle": "software developer trainee at La Net Team software solutions",
        "location": "Anand",
        "name": "Ashruti Jetani",
        "latitude": 22.5586555,
        "longitude": 72.9627227
    },
    {
        "urn_id": "ACoAADbOcigB_OtDPkqtZIgSZdSsXvX0Nf05XYY",
        "distance": "DISTANCE_1",
        "jobtitle": "SDE winter intern @BNY Mellon || Ex-Member at EHC || ICT Student @DAIICT'24",
        "location": "Kheda",
        "name": "Kamal Patel",
        "latitude": 22.75,
        "longitude": 72.833333
    },
    {
        "urn_id": "ACoAADM46OgBc9yWqkK4zMUEBgwkpQgzMdHLARk",
        "distance": "DISTANCE_1",
        "jobtitle": "Cloud enthusiast | 1 x AWS | 1 x Microsoft Azure | DevOps | Postman Student Expert | Technical Blogger @hashnode | No code | Webflow",
        "location": "Rajkot",
        "name": "Kavya Bhalodia",
        "latitude": 22.3053263,
        "longitude": 70.8028377
    },
    {
        "urn_id": "ACoAAC-coFYB0dObRJubcRkf5YhxUTMs-Rz5d10",
        "distance": "DISTANCE_1",
        "jobtitle": "Python Developer",
        "location": "Ahmedabad",
        "name": "Parth Chavda",
        "latitude": 23.0216238,
        "longitude": 72.5797068
    },
    {
        "urn_id": "ACoAADMDyG0BH7jX2CQmpOASklWFm0T85cqvDWQ",
        "distance": "DISTANCE_1",
        "jobtitle": "Looking for job | immediate joiner | Flask | RestAPI | Django | Python | 2024 passout",
        "location": "Surat",
        "name": "Raj Mangukiya",
        "latitude": 45.9383,
        "longitude": 3.2553
    },
    {
        "urn_id": "ACoAADree2sBG8UHoJfnO6bW50_wn-YittR6YwA",
        "distance": "DISTANCE_1",
        "jobtitle": "Student at CHAROTAR UNIVERSITY OF SCIENCE AND TECHNOLOGY",
        "location": "Anand",
        "name": "Alvish Varsani",
        "latitude": 22.5586555,
        "longitude": 72.9627227
    },
    {
        "urn_id": "ACoAADpZlosBoVIoAxHX8hOFd3T2eAcNElzRBQs",
        "distance": "DISTANCE_1",
        "jobtitle": "Software Developer Intern @ Fuzzy Cloud || 1X Microsoft (AZ-900) Certified || Enthusiastic About Cybersecurity",
        "location": "Rajkot",
        "name": "Viraj Koradia",
        "latitude": 22.3053263,
        "longitude": 70.8028377
    },
    {
        "urn_id": "ACoAADTZdCcBwPYAA9LRJsMVJ4Ccgtfd8agxjYI",
        "distance": "DISTANCE_1",
        "jobtitle": "Trainee at synoptek | 3X Microsoft certified |Information technology",
        "location": "Nadiad",
        "name": "PARIKH PREKSHA",
        "latitude": 22.6895535,
        "longitude": 72.8713603
    },
    {
        "urn_id": "ACoAADV4PfUBVk84a3KVs9j4T-1ypaiZkrs9eN8",
        "distance": "DISTANCE_1",
        "jobtitle": "Jr. DevOps Engineer at Anblicks || 4x Microsoft Azure Certified",
        "location": "Surat",
        "name": "Ronak Savani",
        "latitude": 45.9383,
        "longitude": 3.2553
    },
    {
        "urn_id": "ACoAAC2qzp4B2xHuqYmK_JziQzyt_neaNFfxw_s",
        "distance": "DISTANCE_1",
        "jobtitle": "AWS Community Builder || 2x AWS Certified || Associate Engineer at Volansys || 1x Azure Certified",
        "location": "Surat",
        "name": "Fenil Vaghasiya",
        "latitude": 45.9383,
        "longitude": 3.2553
    },
    {
        "urn_id": "ACoAADDUbQ0BQg8TpkAEBMZ4LVLy1vFYjgkI-d8",
        "distance": "DISTANCE_1",
        "jobtitle": "Student at charusat || Microsoft Certified Azure Fundamentals || Upcoming Cloud Engineer",
        "location": "Vadodara",
        "name": "Abhishek Galfade",
        "latitude": 22.2973142,
        "longitude": 73.1942567
    },
    {
        "urn_id": "ACoAADk_HzEBC5JXbyazvOrrm2SWlQAZFWf7miY",
        "distance": "DISTANCE_1",
        "jobtitle": "Student at CHAROTAR UNIVERSITY OF SCIENCE AND TECHNOLOGY",
        "location": "Rajkot",
        "name": "Jaimin Joshi",
        "latitude": 22.3053263,
        "longitude": 70.8028377
    },
    {
        "urn_id": "ACoAADFkLkMB_0UMy_7spuOgTcsvwAQLcA7FAPc",
        "distance": "DISTANCE_1",
        "jobtitle": "Post graduate student of IIIT-DELHI",
        "location": "New Delhi",
        "name": "Kirtan Shah",
        "latitude": 28.6138954,
        "longitude": 77.2090057
    },
    {
        "urn_id": "ACoAADGginIBzMvqda01VK8L20eOJEruWAM5xtU",
        "distance": "DISTANCE_1",
        "jobtitle": "Cloud enthusiast & strategies | 1xMicrosoft certified | AWS | Devops",
        "location": "Surat",
        "name": "Yash Kanpariya",
        "latitude": 45.9383,
        "longitude": 3.2553
    },
    {
        "urn_id": "ACoAADpfBk8ByKKfcEOiZKHClKTmZrBCMX2XqD4",
        "distance": "DISTANCE_1",
        "jobtitle": "Student at CHAROTAR UNIVERSITY OF SCIENCE AND TECHNOLOGY",
        "location": "Vadodara",
        "name": "Rahil Shah",
        "latitude": 22.2973142,
        "longitude": 73.1942567
    },
    {
        "urn_id": "ACoAADQ3_jYB7GBKmeOjQggLsWwZBytiWdGCtY0",
        "distance": "DISTANCE_1",
        "jobtitle": "1X AWS certified | 3X Azure certified | DevOps | Node Js | BTech'24 \ud83c\udf93 | Computer Science \ud83d\udcbb",
        "location": "Junagadh",
        "name": "Vatsal Jadav",
        "latitude": 21.5220416,
        "longitude": 70.4582458
    },
    {
        "urn_id": "ACoAADnFkIgBf2eG2D0eEJqGrxW5uBIaAL68iHg",
        "distance": "DISTANCE_1",
        "jobtitle": "Software Engineer Intern",
        "location": "Ahmedabad",
        "name": "Mitul Dangariya",
        "latitude": 23.0216238,
        "longitude": 72.5797068
    },
    {
        "urn_id": "ACoAAC66Kv0B6IdLOUN8UwKIEsHhbgW7Lcd5pAs",
        "distance": "DISTANCE_1",
        "jobtitle": "Angular || NodeJs || ReactJs",
        "location": "Rajkot",
        "name": "Keval Paun",
        "latitude": 22.3053263,
        "longitude": 70.8028377
    },
    {
        "urn_id": "ACoAADiQMSoBfYhAQKOvHuGq5Er60NKcVb7cKTo",
        "distance": "DISTANCE_1",
        "jobtitle": "Full Stack developer Talks about Software Development | problem solving | React.js | Node.js | Redux | Javascript | Database | Next.js | Typescript",
        "location": "Nadiad",
        "name": "Ketan Prajapati",
        "latitude": 22.6895535,
        "longitude": 72.8713603
    },
    {
        "urn_id": "ACoAAD8E62EBLNGLHrL3Flr42P1eI0f-N-TjUl4",
        "distance": "DISTANCE_1",
        "jobtitle": "AI/ML Engineer | 4x Meta | 3x AWS | UI/UX Designer | Frontend Developer | Mobile App Developer | Cloud Enthusiast",
        "location": "Vadodara",
        "name": "DIVY SHAH",
        "latitude": 22.2973142,
        "longitude": 73.1942567
    },
    {
        "urn_id": "ACoAADPY7HABDOm2zymfqJppAVxt7bfcgIvHz1k",
        "distance": "DISTANCE_1",
        "jobtitle": "STE at Silver Touch | 1x AWS Certified | Cloud Computing | Android Developer | UI/UX Designer | CE Student at CSPIT",
        "location": "Ahmedabad",
        "name": "Preet Padariya",
        "latitude": 23.0216238,
        "longitude": 72.5797068
    },
    {
        "urn_id": "ACoAADj86XAB58haYHS5g_3qYJWLsGBwZ3lqpKo",
        "distance": "DISTANCE_1",
        "jobtitle": "Full Stack | JavaScript Enthusiast | MERN",
        "location": "Porbandar",
        "name": "Dhiren Shiyani",
        "latitude": 21.6409,
        "longitude": 69.611
    },
    {
        "urn_id": "ACoAADxD_KMBIgMsp5SW6qwGu_3ZVyZIUfPNlp0",
        "distance": "DISTANCE_1",
        "jobtitle": "C || C++ || DSA || Python || C# || HTML || CSS || JAVASCRIPT || MYSQL || PHP",
        "location": "Vadodara",
        "name": "PAHLAD KUMAR SAHANI",
        "latitude": 22.2973142,
        "longitude": 73.1942567
    },
    {
        "urn_id": "ACoAADVO9ysB1rfyUYntHBPVY-gysI8KvhcEhfM",
        "distance": "DISTANCE_1",
        "jobtitle": "Certified Blockchain Associate (CBA) | Blockchain Aficionado | Smart Contract | Solidity | Hyperledeger Fabric | Flutter | Open Source Contributor",
        "location": "Ahmedabad",
        "name": "Pransav Patel",
        "latitude": 23.0216238,
        "longitude": 72.5797068
    },
    {
        "urn_id": "ACoAADcrcv8Bmsw-IlqBze4x0aUdwmyGklvihXs",
        "distance": "DISTANCE_1",
        "jobtitle": "QA Intern at Crest Data Systems || Former Training and Placement co-ordinator at CDPC Charusat",
        "location": "Rajkot",
        "name": "Chintan Vyas",
        "latitude": 22.3053263,
        "longitude": 70.8028377
    },
    {
        "urn_id": "ACoAADKOpvIBRXpP02lT0-Cn7sDYRxl4SRb_Zng",
        "distance": "DISTANCE_1",
        "jobtitle": "\ud83e\uddd1\u200d\ud83d\udcbb Software Engineer | Ruby on Rails | ReactJs | JavaScript",
        "location": "Surat",
        "name": "RIDHAM PATEL",
        "latitude": 45.9383,
        "longitude": 3.2553
    },
    {
        "urn_id": "ACoAADUf_l0B10LUHD9zHhxnsQY1g9OtNAz4o_0",
        "distance": "DISTANCE_1",
        "jobtitle": "Associate Software Engineer at Codal System",
        "location": "Rajkot",
        "name": "Vasu Sojitra",
        "latitude": 22.3053263,
        "longitude": 70.8028377
    },
    {
        "urn_id": "ACoAADcGwnUBykN2kaoFQJQ7vxm6whUU1vaa6to",
        "distance": "DISTANCE_1",
        "jobtitle": "2 x Azure certified (AI900 , AZ104) | Cloud enthusiast | Linux | Shell Scripting | Networking | Docker",
        "location": "Ahmedabad",
        "name": "Keval Hingu",
        "latitude": 23.0216238,
        "longitude": 72.5797068
    },
    {
        "urn_id": "ACoAACcGpMwBiLQsnx08da88ovHe1bGAJ4eP8xc",
        "distance": "DISTANCE_1",
        "jobtitle": "QA Trainee at TatvaSoft || Training and Placement Coordinator at ADIT",
        "location": "Anand",
        "name": "Rajveer Parmar",
        "latitude": 22.5586555,
        "longitude": 72.9627227
    },
    {
        "urn_id": "ACoAADME-dQBSwiDbbhW9V0elcF_W9NOAo9vxIQ",
        "distance": "DISTANCE_1",
        "jobtitle": "Software Engineer at Tridhya Tech || Java Developer || Full Stack Developer",
        "location": "Ahmedabad",
        "name": "Jay Dave",
        "latitude": 23.0216238,
        "longitude": 72.5797068
    },
    {
        "urn_id": "ACoAAC1g7T4BpVKnUDQIwKgf_CmyXCKYv5jMjPI",
        "distance": "DISTANCE_1",
        "jobtitle": "Data Science Engineer @PropReturns (YC S21)",
        "location": "Mumbai",
        "name": "Kathan Bhavsar",
        "latitude": 19.0815772,
        "longitude": 72.8866275
    },
    {
        "urn_id": "ACoAAD1GopcBjIqkax09G4JH3jC4c5Keqs7YdRU",
        "distance": "DISTANCE_1",
        "jobtitle": "MERN Developer Intern @ Pxal.io",
        "location": "Surat",
        "name": "Satyam Mishra",
        "latitude": 45.9383,
        "longitude": 3.2553
    },
    {
        "urn_id": "ACoAADnAeNAB7JBDuPg_saqi7Fq2dxTqbAGfYF8",
        "distance": "DISTANCE_1",
        "jobtitle": "Ex-Intern at @Captivate App Solution || IT Engineer || 1 x NPTEL Certified || Flutter Developer || DSA-C++",
        "location": "Surat",
        "name": "Ark Vachhani",
        "latitude": 45.9383,
        "longitude": 3.2553
    },
    {
        "urn_id": "ACoAADU6QUUBQc7U-TEb9vWpsBRiA1CSZNE50qs",
        "distance": "DISTANCE_1",
        "jobtitle": "Software Developer Intern-(Android) || 1X AWS Certified",
        "location": "Gandhinagar",
        "name": "Dhruvi Chotai",
        "latitude": 23.2232877,
        "longitude": 72.6492267
    },
    {
        "urn_id": "ACoAADTcQzoBE_-aKhkk_hLg8EKWCHkTGhcyukc",
        "distance": "DISTANCE_1",
        "jobtitle": "System Engineer at @atqor| 5X Microsoft Azure Certified | Cloud Enthusiast | Information and Technology | CHARUSAT |",
        "location": "Jamnagar",
        "name": "Mital Jadeja",
        "latitude": 22.4732415,
        "longitude": 70.0552102
    },
    {
        "urn_id": "ACoAACE27fwBqYP5ubNl0fAfmqyWNN4fC3Gq6k0",
        "distance": "DISTANCE_1",
        "jobtitle": "Bachelor of Technology - BTech at CHAROTAR UNIVERSITY OF SCIENCE AND TECHNOLOGY",
        "location": "Navsari",
        "name": "Bhargav Patel",
        "latitude": 20.952407,
        "longitude": 72.9323831
    },
    {
        "urn_id": "ACoAAC_WSw4BflcK7ThDGa2oEo37LLAKRADSe8k",
        "distance": "DISTANCE_1",
        "jobtitle": "Flutter developer | Firebase | dsa | java | c++",
        "location": "Ahmedabad",
        "name": "Aman Garala",
        "latitude": 23.0216238,
        "longitude": 72.5797068
    },
    {
        "urn_id": "ACoAADVMg4MBb3iE_0tOf1xvU_-zqmI8YSdWCdo",
        "distance": "DISTANCE_1",
        "jobtitle": "Passionate Flutter Firebase Developer || Business-Enthusiastic Technologist",
        "location": "Surat",
        "name": "Rutik Vasani",
        "latitude": 45.9383,
        "longitude": 3.2553
    },
    {
        "urn_id": "ACoAADVJZMwBkB-MMFsMJPnwl2qykRYX52Rrs0U",
        "distance": "DISTANCE_1",
        "jobtitle": "Intern at @thinkbiz Technology|| App Developer || Flutter || DotNet Developer || Open Source || Devops",
        "location": "Jamnagar",
        "name": "Bhavy Ghaghra",
        "latitude": 22.4732415,
        "longitude": 70.0552102
    },
    {
        "urn_id": "ACoAADTKNBEBgXvTmzd0ywN_8w16sQJxMBMgjeQ",
        "distance": "DISTANCE_1",
        "jobtitle": "M.Sc IT at Dhirubhai Ambani institute of information and communication technology",
        "location": "Surat",
        "name": "Sahil Ghadiya",
        "latitude": 45.9383,
        "longitude": 3.2553
    },
    {
        "urn_id": "ACoAADVaAfoBi0mTHgwe3DzNO3b5wZbw7hd-BLM",
        "distance": "DISTANCE_1",
        "jobtitle": "Web Developer",
        "location": "Kutch district",
        "name": "Hardik Garva",
        "latitude": 23.583333,
        "longitude": 70.0
    },
    {
        "urn_id": "ACoAADKInhIBQZyqEKJt_jsp95nLVfldu98hyXU",
        "distance": "DISTANCE_1",
        "jobtitle": "Intern @Axcend | MCA'24",
        "location": "Ahmedabad",
        "name": "Indrajit Prasad",
        "latitude": 23.0216238,
        "longitude": 72.5797068
    },
    {
        "urn_id": "ACoAADkW5nUB91nJLGnAt37savdLZpPjOy03Aj8",
        "distance": "DISTANCE_1",
        "jobtitle": "Student at CHAROTAR UNIVERSITY OF SCIENCE AND TECHNOLOGY",
        "location": "Bharuch",
        "name": "Deval Ujeniya",
        "latitude": 21.75,
        "longitude": 73.0
    },
    {
        "urn_id": "ACoAADnD3M4B0kzfMEMAInixFCJdTfRdSjiBOEc",
        "distance": "DISTANCE_1",
        "jobtitle": "1x Microsoft Azure Certified || Google Cloud || 2x NPTEL certified || MERN Stack || WEB DEVELOPER || Codechef || CHARUSAT",
        "location": "Surat",
        "name": "Ronil Lakhani",
        "latitude": 45.9383,
        "longitude": 3.2553
    },
    {
        "urn_id": "ACoAAD7CI0cBmgW0qPLblmHXcSqSbR2JkE4AwmA",
        "distance": "DISTANCE_1",
        "jobtitle": "Machine Learning Enthusiast | Inspiring Data Scientist | Cloud Computing",
        "location": "Vadodara",
        "name": "SMIT SHAH",
        "latitude": 22.2973142,
        "longitude": 73.1942567
    },
    {
        "urn_id": "ACoAADtaq2cB4vNitzkZcvj_FKM-Wyvyg6rN854",
        "distance": "DISTANCE_1",
        "jobtitle": "B.Tech Student, Web developer",
        "location": "Ahmedabad",
        "name": "Hemish Mankodi",
        "latitude": 23.0216238,
        "longitude": 72.5797068
    },
    {
        "urn_id": "ACoAADW68AABC96Nxw1U0KII-QkG_8UaQgPZ2SE",
        "distance": "DISTANCE_1",
        "jobtitle": "Data Science | Machine Learning | Cloud Computing.",
        "location": "Gujarat, India",
        "name": "Patel Kunal",
        "latitude": 22.3850051,
        "longitude": 71.745261
    },
    {
        "urn_id": "ACoAADRNG48B7veo8pROXmFTJyupqlXCLZAxzXs",
        "distance": "DISTANCE_1",
        "jobtitle": "Software Engineer Intern @Tridhya Tech || Full Stack Developer || Spring boot || React Js || Node Js",
        "location": "Junagadh",
        "name": "Vivek Kakadiya",
        "latitude": 21.5220416,
        "longitude": 70.4582458
    },
    {
        "urn_id": "ACoAADX1T00BsKFEi-eME6cvEEv_MgbkQQPL6n0",
        "distance": "DISTANCE_1",
        "jobtitle": "Charotar University | Computer Science",
        "location": "Chikhli",
        "name": "Krupa Mistry",
        "latitude": 20.3418505,
        "longitude": 76.2551844
    },
    {
        "urn_id": "ACoAACMLqFgBbPdWKjEGTag6oHfUI0g9VP8Muyw",
        "distance": "DISTANCE_1",
        "jobtitle": "AWS Developer at Cosmic Information & Technology Limited",
        "location": "Ahmedabad",
        "name": "Parth Patel",
        "latitude": 23.0216238,
        "longitude": 72.5797068
    },
    {
        "urn_id": "ACoAADUN19gBSAQl4cnlB8obEWE0kO42hps0NMg",
        "distance": "DISTANCE_1",
        "jobtitle": "Fresher | B.tech in I.T. | Full Stack Developer | THM Top 3",
        "location": "Gujarat, India",
        "name": "Hardik Chavda",
        "latitude": 22.3850051,
        "longitude": 71.745261
    },
    {
        "urn_id": "ACoAACrPEwgBUKjCkCW6vN_iiGnJXYHTKuJ50rg",
        "distance": "DISTANCE_1",
        "jobtitle": "Associate Engineer at Softnautics",
        "location": "Surat",
        "name": "bhargav sakhareliya",
        "latitude": 45.9383,
        "longitude": 3.2553
    },
    {
        "urn_id": "ACoAADExzSkBjALR4ZMymr1U5RVA6xUbMpMm_w0",
        "distance": "DISTANCE_1",
        "jobtitle": "Data Analyst @ Webbrains Technologies | Microsoft Certified, Data Analysis",
        "location": "Gujarat, India",
        "name": "Neel Patel",
        "latitude": 22.3850051,
        "longitude": 71.745261
    },
    {
        "urn_id": "ACoAADmUWSMBt8PIQgTU2C9bOc9xDRu12LiY65w",
        "distance": "DISTANCE_1",
        "jobtitle": "Python & Odoo Developer",
        "location": "Ahmedabad",
        "name": "Jaydeep Chandravadiya",
        "latitude": 23.0216238,
        "longitude": 72.5797068
    },
    {
        "urn_id": "ACoAADhoVdgB_mEzlFperL8ugcEi2ugDHoUPGaE",
        "distance": "DISTANCE_1",
        "jobtitle": "Student at CHAROTAR UNIVERSITY OF SCIENCE AND TECHNOLOGY",
        "location": "Surat",
        "name": "Krish Soni",
        "latitude": 45.9383,
        "longitude": 3.2553
    },
    {
        "urn_id": "ACoAADPp2vUBz-RC_6vqsLdKAHVYZ_IvfIsfKEQ",
        "distance": "DISTANCE_1",
        "jobtitle": "Cloud Enthusiast | Azure Certified |AWS Certified | Devops Engineer | JAVA (Programming Language) | C++",
        "location": "Gandhinagar",
        "name": "DIVYESH LAGADHIR",
        "latitude": 23.2232877,
        "longitude": 72.6492267
    },
    {
        "urn_id": "ACoAADJBrzEBASylyZjKhoS5cw2LmakLtPnvyvU",
        "distance": "DISTANCE_1",
        "jobtitle": "Cloud Engineer at atQor | 3x Azure Certified",
        "location": "Ahmedabad",
        "name": "Ishan Kansara",
        "latitude": 23.0216238,
        "longitude": 72.5797068
    },
    {
        "urn_id": "ACoAAC9sYXQBXwASZ7fDYm37v2wZTl8XcUbhz7c",
        "distance": "DISTANCE_1",
        "jobtitle": "Computer Engineer | Machine Learning Engineer | Python Dev | Awesome Flutter Apps |",
        "location": "Surat",
        "name": "Lomash Relia",
        "latitude": 45.9383,
        "longitude": 3.2553
    },
    {
        "urn_id": "ACoAADUcqWQBzkoYn2X0uA0-R4IjvJSUwLyeiaA",
        "distance": "DISTANCE_1",
        "jobtitle": "Web Developer",
        "location": "Nadiad",
        "name": "Ravi Thakor",
        "latitude": 22.6895535,
        "longitude": 72.8713603
    },
    {
        "urn_id": "ACoAADPWT8oBn7lphmaPHOve9hVhJIrO9MmFB-M",
        "distance": "DISTANCE_1",
        "jobtitle": "Internship Trainee at Motorola Solutions",
        "location": "Surat",
        "name": "Achyut Krishna Sai Adiraju",
        "latitude": 45.9383,
        "longitude": 3.2553
    },
    {
        "urn_id": "ACoAADAbbPcBbLif5LSc2Lbzt6uAxk-MHE8xkxo",
        "distance": "DISTANCE_1",
        "jobtitle": "Software Developer intern at Conversios | Final Year Student at CHAROTAR UNIVERSITY OF SCIENCE AND TECHNOLOGY",
        "location": "Surat",
        "name": "Shubham Dankhara",
        "latitude": 45.9383,
        "longitude": 3.2553
    },
    {
        "urn_id": "ACoAADJXz78BNflcnpRqKgw57WSK4qg2kIgf5ec",
        "distance": "DISTANCE_1",
        "jobtitle": "Alumni, AIESEC in VVN \ud83c\uddee\ud83c\uddf3 | ECB- IM Director, and Marketing Manager AIESEC in Germany \ud83c\udde9\ud83c\uddea | Organization Development Coach for Asia Pacific, International Control Board | HR Manager",
        "location": "Nadiad",
        "name": "Vansh Dipakkumar Patni",
        "latitude": 22.6895535,
        "longitude": 72.8713603
    },
    {
        "urn_id": "ACoAADN5hbABkVwtO8qCbpus91C4w54SgoiSb1Q",
        "distance": "DISTANCE_1",
        "jobtitle": "AWS 1x certified || Microsoft 3x certified || Django Developer",
        "location": "Ahmedabad",
        "name": "Aalisha Desai",
        "latitude": 23.0216238,
        "longitude": 72.5797068
    },
    {
        "urn_id": "ACoAADobWHABdZv77WlP1NermgT6ok8jibq5Ezs",
        "distance": "DISTANCE_1",
        "jobtitle": "Student at CHAROTAR UNIVERSITY OF SCIENCE AND TECHNOLOGY",
        "location": "Rajkot",
        "name": "Moksh Ajmera",
        "latitude": 22.3053263,
        "longitude": 70.8028377
    },
    {
        "urn_id": "ACoAADDnB60BohOxUnkMAFnyUQYcCIxGpm-M_5c",
        "distance": "DISTANCE_1",
        "jobtitle": "Software Developer Intern @Welwin Infotech || Final Year CSE",
        "location": "Gujarat, India",
        "name": "Udit Sharma",
        "latitude": 22.3850051,
        "longitude": 71.745261
    },
    {
        "urn_id": "ACoAADsONNQBlw6qyE7tul1JfAwRU9-JeYNqueU",
        "distance": "DISTANCE_1",
        "jobtitle": "Student at CHAROTAR UNIVERSITY OF SCIENCE AND TECHNOLOGY",
        "location": "Nadiad",
        "name": "Hardi Dave",
        "latitude": 22.6895535,
        "longitude": 72.8713603
    },
    {
        "urn_id": "ACoAADm8b_gBIp-3nzqrHFHVHcB0w0a6xAP2i3I",
        "distance": "DISTANCE_1",
        "jobtitle": "Frontend Developer | React Developer | Student at CHAROTAR UNIVERSITY OF SCIENCE AND TECHNOLOGY",
        "location": "Surat",
        "name": "Shrey Savani",
        "latitude": 45.9383,
        "longitude": 3.2553
    },
    {
        "urn_id": "ACoAADKpWZcBDnuS4eBE4FiQFg915s1yPsp3ZBs",
        "distance": "DISTANCE_1",
        "jobtitle": "Final Year Computer Engineering at G H Patel College of Engineering and Technology.",
        "location": "Vadodara",
        "name": "Ujjwal Chauhan",
        "latitude": 22.2973142,
        "longitude": 73.1942567
    },
    {
        "urn_id": "ACoAAEMSNWkB67AgmPPQ8trEUw8fIp5V_b_fUo0",
        "distance": "DISTANCE_1",
        "jobtitle": "Attended A. D. Patel Institute Of Technology, Karamsad 001",
        "location": "Anand",
        "name": "Krish Patel",
        "latitude": 22.5586555,
        "longitude": 72.9627227
    },
    {
        "urn_id": "ACoAADc3J2oBA10pqFKVEhG48TTghlzysAB_Qlc",
        "distance": "DISTANCE_1",
        "jobtitle": "Student at CHAROTAR UNIVERSITY OF SCIENCE AND TECHNOLOGY | \ud83c\udfc62nd Runners up team Smackathon, YCCE 2022 | DSA | Machine Learning | Data Science",
        "location": "Surat",
        "name": "PRANAV SAVANI",
        "latitude": 45.9383,
        "longitude": 3.2553
    },
    {
        "urn_id": "ACoAADHhWQsBlVtcASNP3geJHr6AsTaxvdxsO3E",
        "distance": "DISTANCE_1",
        "jobtitle": "Software Developer at Odoo",
        "location": "Surat",
        "name": "Ravi Bhingradiya",
        "latitude": 45.9383,
        "longitude": 3.2553
    },
    {
        "urn_id": "ACoAADVKtQ8Bpf01eIK8CAXhME9TTvv-dhZgoS8",
        "distance": "DISTANCE_1",
        "jobtitle": "Student at Chandubhai S. Patel Institute of Technology",
        "location": "Surat",
        "name": "Harsh Nagani",
        "latitude": 45.9383,
        "longitude": 3.2553
    },
    {
        "urn_id": "ACoAADezS7wBDTeR046fa8jYlGXVkSHz1Bg6Glg",
        "distance": "DISTANCE_1",
        "jobtitle": "Machine Learning | Backend Developer | Python Developer | Kaggle Certified \ud83d\udcca | Transforming Ideas into Intelligent Solutions \ud83d\ude80 | Blogger",
        "location": "Rajkot",
        "name": "Shivam Ardeshna",
        "latitude": 22.3053263,
        "longitude": 70.8028377
    },
    {
        "urn_id": "ACoAADRHqjYB3cK04VhwRC4tWorx-bUBm7D4lQo",
        "distance": "DISTANCE_1",
        "jobtitle": "FullStack developer | AWS Certified | Oracle Cloud Certified",
        "location": "Anand",
        "name": "Suryadeepsinh Gohil",
        "latitude": 22.5586555,
        "longitude": 72.9627227
    },
    {
        "urn_id": "ACoAADwYEo0BsIiZw6c9ouWqsGRzhtq-gqLsTeI",
        "distance": "DISTANCE_1",
        "jobtitle": "Software Engineer Intern",
        "location": "Rajkot",
        "name": "nirav tank",
        "latitude": 22.3053263,
        "longitude": 70.8028377
    },
    {
        "urn_id": "ACoAADjtC7cBk62FhDzDwPrRAu_HDm0ISP4QaNY",
        "distance": "DISTANCE_1",
        "jobtitle": "1x Azure Certified || Data Analytics & ML Intern at Start-Tech Academy || Coding Ninja Entrepreneur || Pursuing B.tech in Computer Engineering at Devang Patel Institute of Advanced technology and research \u2022 Charusat",
        "location": "Surat",
        "name": "Dhruvi Patel",
        "latitude": 45.9383,
        "longitude": 3.2553
    },
    {
        "urn_id": "ACoAADIEB18B8V8o6m87kaNrNodqG8IiBdQjWLE",
        "distance": "DISTANCE_1",
        "jobtitle": "Jr devops engineer",
        "location": "Ahmedabad",
        "name": "Aman Shukla",
        "latitude": 23.0216238,
        "longitude": 72.5797068
    },
    {
        "urn_id": "ACoAADVJP0gB8i3Gh6ZeLTuc-IUaB70BXRmA20Q",
        "distance": "DISTANCE_1",
        "jobtitle": "Front end Developer | JavaScript | ReactJS | Unity Developer | AR Apps | GCP | Firebase | Shopify",
        "location": "Anand",
        "name": "Harshit Tripathi",
        "latitude": 22.5586555,
        "longitude": 72.9627227
    },
    {
        "urn_id": "ACoAADnDpkIB4WMJnxYTR9YnZKqErcpmiDb5u7w",
        "distance": "DISTANCE_1",
        "jobtitle": "CHAROTAR UNIVERSITY OF SCIENCE AND TECHNOLOGY",
        "location": "Navsari",
        "name": "Het Shah",
        "latitude": 20.952407,
        "longitude": 72.9323831
    },
    {
        "urn_id": "ACoAADVWkHsBGDrvR7Pgu4slE5ytkbDBZ-t4fJA",
        "distance": "DISTANCE_1",
        "jobtitle": "Software Engineering Trainee at Ace Infoway | Mobile Application Developer | Data Scientist & Machine Learning Engineer | Cybersecurity Enthusiast",
        "location": "Anand",
        "name": "Tirth Patel",
        "latitude": 22.5586555,
        "longitude": 72.9627227
    },
    {
        "urn_id": "ACoAADwAStsBTDyE3ePtKa4-JaVPXQEtkNVLGz4",
        "distance": "DISTANCE_1",
        "jobtitle": "Student at CHAROTAR UNIVERSITY OF SCIENCE AND TECHNOLOGY",
        "location": "Ahmedabad",
        "name": "Varshil Patel",
        "latitude": 23.0216238,
        "longitude": 72.5797068
    },
    {
        "urn_id": "ACoAAD3hqQMBzXDd4GqsDAoT03tjNwfDRzRSoCA",
        "distance": "DISTANCE_1",
        "jobtitle": "DevOps Trainee @Bacancy || Cloud || DevOps || Web-Dev",
        "location": "Amreli",
        "name": "Vivek Dhamat",
        "latitude": 20.866667,
        "longitude": 70.75
    },
    {
        "urn_id": "ACoAADoFq-gBF3_xgYVh9w0ryJEnx6DqZmr-aVs",
        "distance": "DISTANCE_1",
        "jobtitle": "Student at CHAROTAR UNIVERSITY OF SCIENCE AND TECHNOLOGY",
        "location": "Rajkot",
        "name": "Dishit Zinzuvadiya",
        "latitude": 22.3053263,
        "longitude": 70.8028377
    },
    {
        "urn_id": "ACoAAC4QsGIBHoLYRvRnn4VGEwp5laEUrQgKdPQ",
        "distance": "DISTANCE_1",
        "jobtitle": "Flutter Developer \ud83d\udc68\u200d\ud83d\udcbb at Astha Technology Solutions Pvt Ltd",
        "location": "Greater Surat Area",
        "name": "Parth Desai",
        "latitude": 44.83141,
        "longitude": 9.41722
    },
    {
        "urn_id": "ACoAADhM8S0B-XLMrFKYm7bpq9dL6fLj90CRpUU",
        "distance": "DISTANCE_1",
        "jobtitle": "2x Azure Certified || Freelancer || Social Media Manager",
        "location": "Surat",
        "name": "Heel Vaghani",
        "latitude": 45.9383,
        "longitude": 3.2553
    },
    {
        "urn_id": "ACoAADcjkPoBXbu25mC5z321oHVcKoRWjtksozQ",
        "distance": "DISTANCE_1",
        "jobtitle": "Student at PARUL INSTITUTE OF TECH., LIMDA, VAGHODIA 087",
        "location": "Surat",
        "name": "Akbari Naimish",
        "latitude": 45.9383,
        "longitude": 3.2553
    },
    {
        "urn_id": "ACoAADhd9MABzIU_Y80RrxF1M8JbbtxKH_9az_w",
        "distance": "DISTANCE_1",
        "jobtitle": "Web Developer | UI-UX",
        "location": "Rajkot",
        "name": "Falsi Vadaliya",
        "latitude": 22.3053263,
        "longitude": 70.8028377
    },
    {
        "urn_id": "ACoAACoQclcBqm84sfp_WDL0onAI_0psFc-hYN4",
        "distance": "DISTANCE_1",
        "jobtitle": "Shopify | React | Laravel",
        "location": "Surat",
        "name": "Smit G",
        "latitude": 45.9383,
        "longitude": 3.2553
    },
    {
        "urn_id": "ACoAADo1mJwBemZCpyT_LAZWGu72WYUfb5cmy7k",
        "distance": "DISTANCE_1",
        "jobtitle": "Student at CHAROTAR UNIVERSITY OF SCIENCE AND TECHNOLOGY | DSA | CP | Web Development",
        "location": "Gujarat, India",
        "name": "Parthiv Padariya",
        "latitude": 22.3850051,
        "longitude": 71.745261
    },
    {
        "urn_id": "ACoAADaU3NoBvmgtkS3kUT8xt7UROXXr-EM9-xE",
        "distance": "DISTANCE_1",
        "jobtitle": "Software Developer || Java || Firebase || Certified android developer by coursera || Problem solver",
        "location": "Bhavnagar",
        "name": "Darshan Chudasama",
        "latitude": 21.7718836,
        "longitude": 72.1416449
    },
    {
        "urn_id": "ACoAADo0ggMBYAagM0Dvc9qwVBOt2yOdXQFeSOo",
        "distance": "DISTANCE_1",
        "jobtitle": "Mobile App Development || Student at CHARUSAT",
        "location": "Surat",
        "name": "Yash Patel",
        "latitude": 45.9383,
        "longitude": 3.2553
    },
    {
        "urn_id": "ACoAADl4EzoB48ZcQ8seju9HGamCZzGY3XHR_wc",
        "distance": "DISTANCE_1",
        "jobtitle": "GSSoC'23 | Tech Enthusiast | Web Developer | App Developer | UI/UX Designer",
        "location": "Rajkot",
        "name": "Pavan Mehta",
        "latitude": 22.3053263,
        "longitude": 70.8028377
    },
    {
        "urn_id": "ACoAADTyFF8B3cTqS8fatR1e-zYtxbFSMr2iOlk",
        "distance": "DISTANCE_1",
        "jobtitle": "Python developer | Data science| Data analytics| Data visualization| ML | DL | Ex- python development intern@php dots technology | National player |",
        "location": "Gujarat, India",
        "name": "Abhay Patel",
        "latitude": 22.3850051,
        "longitude": 71.745261
    },
    {
        "urn_id": "ACoAACiWefMBWPyT_qYblEKzuvijl0okpig5jDY",
        "distance": "DISTANCE_1",
        "jobtitle": "Cloud Engineer | Optimize Cloud Infrastructures | 2+ Years in Cloud Architecture | I help organizations maximize cost-efficiency and scalability with AWS, Azure & Google Cloud",
        "location": "Ahmedabad",
        "name": "Vishv Gajjar",
        "latitude": 23.0216238,
        "longitude": 72.5797068
    },
    {
        "urn_id": "ACoAADohiNoBJWZD8snb0Bq6bTfbi1EK1wU1Xws",
        "distance": "DISTANCE_1",
        "jobtitle": "Enthusiastic Software Developer Student | Former Intern @Fuerte Developers\u00ae\ufe0f | Building Tomorrow's Tech, Today | 3rd Year Engineering Student",
        "location": "Morbi",
        "name": "Param Bavarva",
        "latitude": 22.8176662,
        "longitude": 70.8345928
    },
    {
        "urn_id": "ACoAACvTG0EBqul39Gn0-SXgT4s_KrVT6IpKLCg",
        "distance": "DISTANCE_1",
        "jobtitle": "Civil Engineer",
        "location": "Surat",
        "name": "Brijesh Patel",
        "latitude": 45.9383,
        "longitude": 3.2553
    },
    {
        "urn_id": "ACoAAD_7m_8BmJT1Qb0dWzp814R9ec38ph3l_eU",
        "distance": "DISTANCE_1",
        "jobtitle": "Cloud | DevOps | AWS | Azure",
        "location": "Surat",
        "name": "Divyang Hirpara",
        "latitude": 45.9383,
        "longitude": 3.2553
    },
    {
        "urn_id": "ACoAAEQD2SAB10BymJGj4UN7se0rYRjTKo1TYK4",
        "distance": "DISTANCE_1",
        "jobtitle": "Salesforce Developer",
        "location": "Rajkot",
        "name": "Harmi Bhalani",
        "latitude": 22.3053263,
        "longitude": 70.8028377
    },
    {
        "urn_id": "ACoAADKBX2EB09csLi8A5i_ICO_HT1p4PC1lK5Q",
        "distance": "DISTANCE_1",
        "jobtitle": "-",
        "location": "Gujarat, India",
        "name": "Prit Raithatha",
        "latitude": 22.3850051,
        "longitude": 71.745261
    },
    {
        "urn_id": "ACoAAC_BFRoB-9q6rmhqYTijBwFGdDHEE1jh5o8",
        "distance": "DISTANCE_1",
        "jobtitle": "Founder & CEO @ Intralogic IT Solutions",
        "location": "Gujarat, India",
        "name": "Harshad Patoliya",
        "latitude": 22.3850051,
        "longitude": 71.745261
    },
    {
        "urn_id": "ACoAADeOw_EBKBTqFOib0UFaFI0APSkc6tGjAgM",
        "distance": "DISTANCE_1",
        "jobtitle": "Student at CHAROTAR UNIVERSITY OF SCIENCE AND TECHNOLOGY",
        "location": "Anand",
        "name": "Rishabh Danidhariya",
        "latitude": 22.5586555,
        "longitude": 72.9627227
    },
    {
        "urn_id": "ACoAADvZokwBqfkAX_w6sARhzXiHBAguhl8bMTs",
        "distance": "DISTANCE_1",
        "jobtitle": "React developer",
        "location": "Surat",
        "name": "Milan Sojitra",
        "latitude": 45.9383,
        "longitude": 3.2553
    },
    {
        "urn_id": "ACoAADa6RGwB-sYtzoUnQ71VYSRKHC6SSgae7Fs",
        "distance": "DISTANCE_1",
        "jobtitle": "Electrical Design Engineer at Shilchar Technologies Limited",
        "location": "Vadodara",
        "name": "BRIJESH PATEL",
        "latitude": 22.2973142,
        "longitude": 73.1942567
    },
    {
        "urn_id": "ACoAADqJvCEBs21Xps-Rss3p2Cx1Yfq8ZdadFqI",
        "distance": "DISTANCE_1",
        "jobtitle": "Software Engineer at Crest Data System || MERN Developer",
        "location": "Surat",
        "name": "Harshit Rathod",
        "latitude": 45.9383,
        "longitude": 3.2553
    },
    {
        "urn_id": "ACoAADHTk6EBayAkjJu7WCvOVs-OY7tTJBaWb_Q",
        "distance": "DISTANCE_1",
        "jobtitle": "Jr. Web Developer at Zignuts Technolab | Node Js | MySql | MongoDB | Express Js | Strapi",
        "location": "Nadiad",
        "name": "Jaydeep Patel",
        "latitude": 22.6895535,
        "longitude": 72.8713603
    },
    {
        "urn_id": "ACoAADSVgpgB00D44ANMHCAngwt8v6MEzBXduKI",
        "distance": "DISTANCE_1",
        "jobtitle": "Jr Software Developer/Engineer || HTML || CSS || Tailwind || Bootstrap || Javascript || Typescript || React Js || Responsive Web Design || Github || Redux || Next Js",
        "location": "Ahmedabad",
        "name": "Poshiya Parth",
        "latitude": 23.0216238,
        "longitude": 72.5797068
    },
    {
        "urn_id": "ACoAADEu--MBYSO3Ei3t4TYZUv_msFFoh4mQhhY",
        "distance": "DISTANCE_1",
        "jobtitle": "Regional Sales Manager at AutonomousERP",
        "location": "Mumbai",
        "name": "Hardikkumar Arvadiya",
        "latitude": 19.0815772,
        "longitude": 72.8866275
    },
    {
        "urn_id": "ACoAADhLXoQB514rfwOfFGH9IXWKLwyp_WBG4Mc",
        "distance": "DISTANCE_1",
        "jobtitle": "2 x Microsoft Certified | 2x NPTEL certified | MERN DEVELOPER | ReactJS | NodeJS",
        "location": "Surat",
        "name": "Vaidik Jetani",
        "latitude": 45.9383,
        "longitude": 3.2553
    },
    {
        "urn_id": "ACoAADVZHYMBYJQ65qbAIV0-KBtOr0l8z1sIagE",
        "distance": "DISTANCE_1",
        "jobtitle": "1 \u00d7 Microsoft (Azure-900) || Cyber-Security || 2 \u00d7 NPTEL (Introduction to database management system, Database management system) || Cloud security",
        "location": "Surat",
        "name": "Rachit Shah",
        "latitude": 45.9383,
        "longitude": 3.2553
    },
    {
        "urn_id": "ACoAADDwhqwBSoZu92TvETlLWbOfGDZNFyyYvLg",
        "distance": "DISTANCE_1",
        "jobtitle": "Software Developer Intern at Odoo",
        "location": "Gujarat, India",
        "name": "Nikhil Kajavadra",
        "latitude": 22.3850051,
        "longitude": 71.745261
    },
    {
        "urn_id": "ACoAADRb27cBdmfyjhvGxspCd3fRD9jXKK1ZSfk",
        "distance": "DISTANCE_1",
        "jobtitle": "1X AWS Certified (CP) || AWS Cloudian || MERN Stack Developer || Devops",
        "location": "Surat Taluka",
        "name": "Jeel Kanani",
        "latitude": 21.2094892,
        "longitude": 72.8317058
    },
    {
        "urn_id": "ACoAADU5flgBKbMS0YDB-GgE8OOCE06zSJ_K0YI",
        "distance": "DISTANCE_1",
        "jobtitle": "Data Scientist | Full Stack developer | UI/UX designer | Driving innovation in IT solutions. #VBI #Techinnovation",
        "location": "Surat",
        "name": "PRIYANK VASOYA",
        "latitude": 45.9383,
        "longitude": 3.2553
    },
    {
        "urn_id": "ACoAAD1jjuoBo6lQkVgSg34G1ktoD14jsb5TkpE",
        "distance": "DISTANCE_1",
        "jobtitle": "AI/ML intern @Riveredge Analytics Pvt. Ltd.",
        "location": "Ahmedabad",
        "name": "Kaushal Shukla",
        "latitude": 23.0216238,
        "longitude": 72.5797068
    },
    {
        "urn_id": "ACoAADUCNagB1CxmuPsT8HYVoedFXv-Vq85Mj4U",
        "distance": "DISTANCE_1",
        "jobtitle": "Flutter Expert | FlutterFlow | Android, IOS, and Web Applications.",
        "location": "Surat",
        "name": "Jemish Dobariya",
        "latitude": 45.9383,
        "longitude": 3.2553
    },
    {
        "urn_id": "ACoAADnDopABUHAPdPlIQo0W_uxUUIuNaW2Bbgg",
        "distance": "DISTANCE_1",
        "jobtitle": "--",
        "location": "Ahmedabad",
        "name": "PATEL BRIJESH",
        "latitude": 23.0216238,
        "longitude": 72.5797068
    },
    {
        "urn_id": "ACoAADPokJcBklDgDCM8PEeNLG8FD6KlXKZE7Ac",
        "distance": "DISTANCE_1",
        "jobtitle": "2x AWS certified, 2x Azure certified CSE at Charotar University of Science & Technology",
        "location": "Surat",
        "name": "Darshan Shah",
        "latitude": 45.9383,
        "longitude": 3.2553
    },
    {
        "urn_id": "ACoAADVFxGoBjsPsG_eU3a6vVFEkj67Elgw51O0",
        "distance": "DISTANCE_1",
        "jobtitle": "DevOps & Cloud \u2601\ufe0f",
        "location": "Gujarat, India",
        "name": "Param Humbal",
        "latitude": 22.3850051,
        "longitude": 71.745261
    },
    {
        "urn_id": "ACoAACSc6Y8B8QezzP-BSLpYSKVBCCRF6nHay04",
        "distance": "DISTANCE_1",
        "jobtitle": "Freelancer",
        "location": "Surat",
        "name": "R.K. Golakiya",
        "latitude": 45.9383,
        "longitude": 3.2553
    },
    {
        "urn_id": "ACoAADbnglMBskAdouZmc3OxcduPsrF6ErP-zgc",
        "distance": "DISTANCE_1",
        "jobtitle": "DevOps Junior | \ud83d\udc33 Docker , \u2638\ufe0fKubernetes , \ud83d\ude80 Typescript , \ud83d\udc27 Linux Advanced , \u2601\ufe0f AWS | Streamlining Deployments for Tomorrow's Tech Landscape!",
        "location": "Gujarat, India",
        "name": "ARYAN VERMA",
        "latitude": 22.3850051,
        "longitude": 71.745261
    },
    {
        "urn_id": "ACoAACyD2HoBxSGyBj9N-WfdaEfjfALYhU4ivU8",
        "distance": "DISTANCE_1",
        "jobtitle": ".Net | Angular | Azure",
        "location": "Surat",
        "name": "Keval Ghelani",
        "latitude": 45.9383,
        "longitude": 3.2553
    },
    {
        "urn_id": "ACoAADTZk9EBpal8fYn9laRiJ2TD2_Xu-SM0MZQ",
        "distance": "DISTANCE_1",
        "jobtitle": "1 X AWS | 1 X Azure certified | Cloud Enthusiast",
        "location": "Surat",
        "name": "Margi Dadhania",
        "latitude": 45.9383,
        "longitude": 3.2553
    },
    {
        "urn_id": "ACoAADUSfTAB4oW2hW11xBygj2s70DMO5XP2w4M",
        "distance": "DISTANCE_1",
        "jobtitle": "UI/UX Designer at DosePacker India | Photography",
        "location": "Dhrangadhra",
        "name": "Deep Kavar",
        "latitude": 22.9914292,
        "longitude": 71.4663753
    },
    {
        "urn_id": "ACoAADQ-GIQBOfspCtDlT-BKfVOLSlDe_y8J7WY",
        "distance": "DISTANCE_1",
        "jobtitle": "DevOps Engineer | 1X Azure Certificate | Kubernetes Enthusiast | Cloud Architect | AWS, Docker, GitLab, GitHub | Docker | Transforming Operations for Efficiency and Scalability",
        "location": "Nadiad",
        "name": "Nilkanth Mistry",
        "latitude": 22.6895535,
        "longitude": 72.8713603
    },
    {
        "urn_id": "ACoAADgj770BqFwaCgfN-5hSfSxBLvReAcPMjXA",
        "distance": "DISTANCE_1",
        "jobtitle": "Passionate Java, Spring Boot, Node.js, React.js enthusiast | Navigating the realms of Data Structures and Algorithms. \ud83d\ude80 #Java #SpringBoot #NodeJS #ReactJS #DataStructures #Algorithms",
        "location": "Mehsana",
        "name": "Dharmendra Prajapati",
        "latitude": 23.6015557,
        "longitude": 72.3867981
    },
    {
        "urn_id": "ACoAACnZW_IBygg_jYxkdBG2YBMsFMKK5wthRG4",
        "distance": "DISTANCE_1",
        "jobtitle": "Dedicated",
        "location": "Gujarat, India",
        "name": "Pruthvi Dabhi",
        "latitude": 22.3850051,
        "longitude": 71.745261
    },
    {
        "urn_id": "ACoAADV3swcBjQ4E66fG-b73gafXAgsCyJb7BHg",
        "distance": "DISTANCE_1",
        "jobtitle": "Full Stack Developer",
        "location": "Nadiad",
        "name": "Afroz Malek",
        "latitude": 22.6895535,
        "longitude": 72.8713603
    },
    {
        "urn_id": "ACoAADgljToBNlOxHC8UWvLcD3pu7Ucz8jX7Npw",
        "distance": "DISTANCE_1",
        "jobtitle": "Student at Shri S'ad Vidhya Mandal Institute of Technology",
        "location": "Anklesvar",
        "name": "Sachi Patel",
        "latitude": 21.63236,
        "longitude": 72.99001
    },
    {
        "urn_id": "ACoAAEDEoYABukJlQ-9zuocqSddmDRI28Ugp0OA",
        "distance": "DISTANCE_1",
        "jobtitle": "Placement Coordinator | Management | Business Analytics | SEO | HR | Pre-Final Year CSE Student of Charusat University",
        "location": "Gujarat, India",
        "name": "Vaidehi Ghodasara",
        "latitude": 22.3850051,
        "longitude": 71.745261
    },
    {
        "urn_id": "ACoAADKRSsUB1HrdRY2Int4sVslnPkSig-qiy3E",
        "distance": "DISTANCE_1",
        "jobtitle": "Microsoft Azure Certified || 2 X NPTEL \ud83e\udd47|| Software Developer || MCA || IT Security",
        "location": "Gujarat, India",
        "name": "JAYESH KAURANI",
        "latitude": 22.3850051,
        "longitude": 71.745261
    },
    {
        "urn_id": "ACoAADFlyI8B7pJrtdjxpXjmM_DQAFEuMvC3HTY",
        "distance": "DISTANCE_1",
        "jobtitle": "Mechanical Engineer at UPL",
        "location": "Gujarat, India",
        "name": "Parth Patel",
        "latitude": 22.3850051,
        "longitude": 71.745261
    },
    {
        "urn_id": "ACoAADp190AB5HNREiRl2YpjGPtYmBNtU2eP4zY",
        "distance": "DISTANCE_1",
        "jobtitle": "c++ || JAVA",
        "location": "India",
        "name": "Madhuri Barochiya",
        "latitude": 22.3511148,
        "longitude": 78.6677428
    },
    {
        "urn_id": "ACoAAD_s2UUB9Ultr9od5rTug0h7K1U3N4nD0dA",
        "distance": "DISTANCE_1",
        "jobtitle": "Attended G H Patel College of Engineering & Technology",
        "location": "Ahmedabad",
        "name": "Radhe Koringa",
        "latitude": 23.0216238,
        "longitude": 72.5797068
    },
    {
        "urn_id": "ACoAADNsx20BCNRLNf7IPzES2xfPkIWVkUYT6TQ",
        "distance": "DISTANCE_1",
        "jobtitle": "Computer Engineer",
        "location": "Vadodara",
        "name": "JAINEEL BHAVSAR",
        "latitude": 22.2973142,
        "longitude": 73.1942567
    },
    {
        "urn_id": "ACoAAA_2me8BjdSM9x9_vq7zdQ19Wy3oQEmAKP4",
        "distance": "DISTANCE_1",
        "jobtitle": "PR Consultant",
        "location": "Surat",
        "name": "Shekhar Raval",
        "latitude": 45.9383,
        "longitude": 3.2553
    },
    {
        "urn_id": "ACoAADGt_WkBNGpF-RjW7VnWJLM8qNOX7Hqs42Y",
        "distance": "DISTANCE_1",
        "jobtitle": "Data Science",
        "location": "Ahmedabad",
        "name": "Hetvi Gajjar",
        "latitude": 23.0216238,
        "longitude": 72.5797068
    },
    {
        "urn_id": "ACoAADnDL_UBfX5ukiFJG7qKVStudqK0tmFQ82M",
        "distance": "DISTANCE_1",
        "jobtitle": "Student at Smt. Kundanben Dinsa Patel Department of Information Technology , CSPIT, CHARUSAT",
        "location": "Bharuch",
        "name": "DIVYA PATEL",
        "latitude": 21.75,
        "longitude": 73.0
    },
    {
        "urn_id": "ACoAADCamm8BBil0IlIEqYWjNF_gGRCQLG3svVI",
        "distance": "DISTANCE_1",
        "jobtitle": "Intern at Ace Infoway Pvt. Ltd. in ReactJS and NestJS",
        "location": "Bharuch district",
        "name": "Smit Choksi",
        "latitude": 21.8272839,
        "longitude": 72.8928486
    },
    {
        "urn_id": "ACoAAC-yPawBevFqKRyg_4nfXShP57dMDmwcSns",
        "distance": "DISTANCE_1",
        "jobtitle": "Digital Enthusiast",
        "location": "Ahmedabad",
        "name": "Mokshi Shah",
        "latitude": 23.0216238,
        "longitude": 72.5797068
    },
    {
        "urn_id": "ACoAACrqmDQBodmebxpU6EHH1WRgt-0iK7cmjYc",
        "distance": "DISTANCE_1",
        "jobtitle": "IT Engineer || Python Enthusiastic",
        "location": "Ahmedabad",
        "name": "Mihir Pilojpara",
        "latitude": 23.0216238,
        "longitude": 72.5797068
    },
    {
        "urn_id": "ACoAADSFnhsBQnjsFkmCJyRkgFl80DCUJZ7DG3k",
        "distance": "DISTANCE_1",
        "jobtitle": "Pursuing B.Tech in Computer Science and Engineering with Artificial intelligence",
        "location": "Vadodara",
        "name": "Arpit Vora",
        "latitude": 22.2973142,
        "longitude": 73.1942567
    },
    {
        "urn_id": "ACoAADfAgVgB0dTBSzOrX9SnYvR0HVVqFzgHV9E",
        "distance": "DISTANCE_1",
        "jobtitle": "Machine Learning Engineer \ud83e\udd16 | Python Developer \ud83d\udc69\ud83c\udffd\u200d\ud83d\udcbb\u2328\ufe0f\ud83d\uddb1\ufe0f| Data Analytics & Data Science Enthusiast \ud83d\udcca\ud83d\udcc8\ud83d\udcc9 \ud83c\udf10| Eager to Explore the Boundaries of AI and Data-driven Insights\ud83d\udccc \ud83d\ude80",
        "location": "Navsari",
        "name": "Drushti Sonawane",
        "latitude": 20.952407,
        "longitude": 72.9323831
    },
    {
        "urn_id": "ACoAAB9oprsBHGzhSC2I_wN8bvMdiMYgY8iMu64",
        "distance": "DISTANCE_1",
        "jobtitle": "Principal Software Consultant | Full stack java developer",
        "location": "Ahmedabad",
        "name": "Arth Soni",
        "latitude": 23.0216238,
        "longitude": 72.5797068
    },
    {
        "urn_id": "ACoAADpd3W4BJFAXPOTn9x8jexWm6Nk43DdrLJk",
        "distance": "DISTANCE_1",
        "jobtitle": "Software Developer || Web Development || C++ || JavaScript || ReactJS",
        "location": "Anand",
        "name": "Sarthik Vaghasiya",
        "latitude": 22.5586555,
        "longitude": 72.9627227
    },
    {
        "urn_id": "ACoAAC9KsbsBKswELhg2-qtODOZpZQf0FqUFkP4",
        "distance": "DISTANCE_1",
        "jobtitle": "MS in AI-ML Python | Data science | Big Data",
        "location": "Ahmedabad",
        "name": "Rutvik Chauhan",
        "latitude": 23.0216238,
        "longitude": 72.5797068
    },
    {
        "urn_id": "ACoAADEeoWABEI9_2haInYza6mFEXw0oM9tLrDE",
        "distance": "DISTANCE_1",
        "jobtitle": "Student from charotar university of science and technology",
        "location": "Nadiad",
        "name": "Abhishek Khodiyar",
        "latitude": 22.6895535,
        "longitude": 72.8713603
    },
    {
        "urn_id": "ACoAADYqVHIBzJMraAefbZrSzw6M-q2hQlOaKmM",
        "distance": "DISTANCE_1",
        "jobtitle": "--",
        "location": "Ahmedabad",
        "name": "Aditya Shah",
        "latitude": 23.0216238,
        "longitude": 72.5797068
    },
    {
        "urn_id": "ACoAACocZbwBX3n-DN05LEaVn6zuER9dB1ntWZQ",
        "distance": "DISTANCE_1",
        "jobtitle": "Junior Software Engineer at AQE",
        "location": "Nadiad",
        "name": "Parth Moradiya",
        "latitude": 22.6895535,
        "longitude": 72.8713603
    },
    {
        "urn_id": "ACoAADPHY2oBdYal8tYrmfprEBISQWR37HpwySc",
        "distance": "DISTANCE_1",
        "jobtitle": "React.js | Next.js",
        "location": "Ahmedabad",
        "name": "Jemin Rudani",
        "latitude": 23.0216238,
        "longitude": 72.5797068
    },
    {
        "urn_id": "ACoAADQRBe8BuLpsuHLCrxKPIq_fUhiho6TI_eo",
        "distance": "DISTANCE_1",
        "jobtitle": "Data Scientist Enthusiast - Talks about Python | SQL | Numpy | Pandas | Excel | PowerBi | Tableau | Statistics | Machine Learning | Time Series | Deep Learning",
        "location": "Bharuch",
        "name": "Ravi Shah",
        "latitude": 21.75,
        "longitude": 73.0
    },
    {
        "urn_id": "ACoAADL4M1EB3VJBL-u0K_H-2V65q2LyIIBnWkE",
        "distance": "DISTANCE_1",
        "jobtitle": "Data Science Intern | Aspiring For Data | Data Science | Machine Learning | NLP | Deep Learning",
        "location": "Surat",
        "name": "Priyansh Parsana",
        "latitude": 45.9383,
        "longitude": 3.2553
    },
    {
        "urn_id": "ACoAADY_rL4BGMD4oDyXAyxOXEtITHXuqREvpoU",
        "distance": "DISTANCE_1",
        "jobtitle": "Software Development Engineer",
        "location": "Bhavnagar",
        "name": "Rudra Rajyaguru",
        "latitude": 21.7718836,
        "longitude": 72.1416449
    },
    {
        "urn_id": "ACoAADXY2OQBJOtlDG_hrGPOKyd_Uv2lFr1kgxA",
        "distance": "DISTANCE_1",
        "jobtitle": "Student at CHAROTAR UNIVERSITY OF SCIENCE AND TECHNOLOGY",
        "location": "Vadodara",
        "name": "SHLOK JIVTODE",
        "latitude": 22.2973142,
        "longitude": 73.1942567
    },
    {
        "urn_id": "ACoAADaqUIgBTuxNVbbNh7GptmAn9tILTHWpMA4",
        "distance": "DISTANCE_1",
        "jobtitle": "Nirma University '24",
        "location": "Vadodara",
        "name": "Jugal Patel",
        "latitude": 22.2973142,
        "longitude": 73.1942567
    },
    {
        "urn_id": "ACoAAD-KfEMBexBTeAXyvvy3Hxv4qYrTWSGQG_M",
        "distance": "DISTANCE_1",
        "jobtitle": "Student at CHAROTAR UNIVERSITY OF SCIENCE AND TECHNOLOGY",
        "location": "Dahod",
        "name": "vinal trivedi",
        "latitude": 22.8358786,
        "longitude": 74.2556823
    },
    {
        "urn_id": "ACoAADXPye8BvpRVZSiyJJKVemLH8-RwZXrjYnI",
        "distance": "DISTANCE_1",
        "jobtitle": "Software Engineer Intern @Rejoicehub LLP | I.T.'24 LJIET | Working on FastAPI | Exploring backend Technologies",
        "location": "Ahmedabad",
        "name": "Harshil Ratanpara",
        "latitude": 23.0216238,
        "longitude": 72.5797068
    },
    {
        "urn_id": "ACoAADWlCQEB5bbGavstEOSNDpPUeObBOf8wtiY",
        "distance": "DISTANCE_1",
        "jobtitle": "Frontend @KoinX | Former Blockchain intern @ Techie Amigos | Building piece.gg",
        "location": "Jamnagar",
        "name": "Sakshi Shah",
        "latitude": 22.4732415,
        "longitude": 70.0552102
    },
    {
        "urn_id": "ACoAADxWJCIBCqS4y37h3IjeME0BZecf_XMc1qc",
        "distance": "DISTANCE_1",
        "jobtitle": "I write code | Datascience science | Gen ai | LLM | Machine learning | Deep learning | NLP.",
        "location": "Surat",
        "name": "Smit Bhanderi",
        "latitude": 45.9383,
        "longitude": 3.2553
    },
    {
        "urn_id": "ACoAAD5-ZQYB8lMMF9x0S6ZcJ7Hn4auYmWyenzI",
        "distance": "DISTANCE_1",
        "jobtitle": "Data Science Enthusiast | Machine Learning | Data Analyst | Ready to Learn and Grow",
        "location": "Anand",
        "name": "Raghav Patel",
        "latitude": 22.5586555,
        "longitude": 72.9627227
    },
    {
        "urn_id": "ACoAAEA4LUYBEd3NlahLG6KMRJ2f4kUNQEEEn2Y",
        "distance": "DISTANCE_1",
        "jobtitle": "Student at CHAROTAR UNIVERSITY OF SCIENCE AND TECHNOLOGY",
        "location": "Gujarat, India",
        "name": "Shubham Bhimani",
        "latitude": 22.3850051,
        "longitude": 71.745261
    },
    {
        "urn_id": "ACoAADxFRCYBrVjxzA8EihdNA2CAHDqBRxamCGg",
        "distance": "DISTANCE_1",
        "jobtitle": "Pursuing B.Tech. in Computer Science & Engineering at CHARUSAT University",
        "location": "Anand",
        "name": "Darshan Panchmatiya",
        "latitude": 22.5586555,
        "longitude": 72.9627227
    },
    {
        "urn_id": "ACoAADKxBP0B6pHa81g4gl29CO9hUioJ31nomOM",
        "distance": "DISTANCE_1",
        "jobtitle": "Devops engineer at Meditab India",
        "location": "Ahmedabad",
        "name": "Khushi Upadhyay",
        "latitude": 23.0216238,
        "longitude": 72.5797068
    },
    {
        "urn_id": "ACoAACuA6N4B0zUlMivQEj_suMie9gvOqragO5Q",
        "distance": "DISTANCE_1",
        "jobtitle": "Web Development Intern at Trinarybits Technologies Pvt. Ltd",
        "location": "Ahmedabad",
        "name": "Avi Navadiya",
        "latitude": 23.0216238,
        "longitude": 72.5797068
    },
    {
        "urn_id": "ACoAADQ0Y9ABdGGvrmpWiDBVH-qBKs07mLrs2EQ",
        "distance": "DISTANCE_1",
        "jobtitle": "Driven SharePoint Intern || Bridging the Gap Between Vision and Implementation",
        "location": "Gandhinagar",
        "name": "Parth Vaghela",
        "latitude": 23.2232877,
        "longitude": 72.6492267
    },
    {
        "urn_id": "ACoAADNtwI0BBIf1bfXZZcshPxpBhpdQuZQexws",
        "distance": "DISTANCE_1",
        "jobtitle": "| \ud835\udc69\ud835\udc8d\ud835\udc90\ud835\udc84\ud835\udc8c\ud835\udc84\ud835\udc89\ud835\udc82\ud835\udc8a\ud835\udc8f \ud835\udc6b\ud835\udc86\ud835\udc97\ud835\udc86\ud835\udc8d\ud835\udc90\ud835\udc91\ud835\udc86\ud835\udc93 | \ud835\udc7a\ud835\udc90\ud835\udc8d\ud835\udc8a\ud835\udc85\ud835\udc8a\ud835\udc95\ud835\udc9a | \ud835\udc6c\ud835\udc95\ud835\udc89\ud835\udc86\ud835\udc93\ud835\udc86\ud835\udc96\ud835\udc8e | \ud835\udc7e\ud835\udc86\ud835\udc833 | \ud835\udc7a\ud835\udc8e\ud835\udc82\ud835\udc93\ud835\udc95 \ud835\udc6a\ud835\udc90\ud835\udc8f\ud835\udc95\ud835\udc93\ud835\udc82\ud835\udc84\ud835\udc95\ud835\udc94 | \ud835\udc75\ud835\udc6d\ud835\udc7b\ud835\udc94 | \ud835\udc85\ud835\udc68\ud835\udc91\ud835\udc91\ud835\udc94 | \ud835\udc75\ud835\udc90\ud835\udc85\ud835\udc86 \ud835\udc8b\ud835\udc94 | \ud835\udc74\ud835\udc90\ud835\udc8f\ud835\udc88\ud835\udc90\ud835\udc6b\ud835\udc69 | \ud835\udc6d\ud835\udc82\ud835\udc83\ud835\udc93\ud835\udc8a\ud835\udc84 |",
        "location": "Ahmedabad",
        "name": "PREM PATEL",
        "latitude": 23.0216238,
        "longitude": 72.5797068
    },
    {
        "urn_id": "ACoAADWvycABHS1z6tcBFhGlUxv4SQTJoySew8U",
        "distance": "DISTANCE_1",
        "jobtitle": "Data Scientist @iGeek | Computer Engineering @BVM",
        "location": "Surat",
        "name": "Parth Mendapara",
        "latitude": 45.9383,
        "longitude": 3.2553
    },
    {
        "urn_id": "ACoAADXRZ2MBqz51QW5YgmkPGIpgQp239SO_Mvw",
        "distance": "DISTANCE_1",
        "jobtitle": "Aspiring Data Analyst | Data visualization | Power BI | Tableau | MY SQL",
        "location": "Ahmedabad",
        "name": "Honey Patel",
        "latitude": 23.0216238,
        "longitude": 72.5797068
    },
    {
        "urn_id": "ACoAADkMM7sBKxrTmqOt6YOTklvaUaE5ZCNby1I",
        "distance": "DISTANCE_1",
        "jobtitle": "qodors | MCA - Charusat'24",
        "location": "Surat",
        "name": "Vivek Desai",
        "latitude": 45.9383,
        "longitude": 3.2553
    },
    {
        "urn_id": "ACoAADUOkfsBfuedeK1t4EHdYO5v3rioIyBjlW8",
        "distance": "DISTANCE_1",
        "jobtitle": "Jr. Data Scientist @Cuneiform Information Technology\ud83d\udc69\u200d\ud83d\udcbb | Devang Patel Institute of technology and Research \ud83c\udf93",
        "location": "Unjha",
        "name": "Hetansi Patel",
        "latitude": 23.7968484,
        "longitude": 72.3818955
    },
    {
        "urn_id": "ACoAAAtv_IUBYx4wZmgGPs4aIG9vHcUneKTc4NU",
        "distance": "DISTANCE_1",
        "jobtitle": "Quality Assurance | Clinical Trials",
        "location": "Rajkot",
        "name": "VIRAL VAISHNAV",
        "latitude": 22.3053263,
        "longitude": 70.8028377
    },
    {
        "urn_id": "ACoAADMi9mwBHe7mBv12oZVeZvmgcuNDo6Iix2k",
        "distance": "DISTANCE_1",
        "jobtitle": "Hackerrank 5 \u272a | Codechef (Max - 1452) | Leetcode 200+ Solved | MERN Full - Stack l Final Year Student at Dharmsinh Desai University",
        "location": "Surat",
        "name": "Ravi Bhuva",
        "latitude": 45.9383,
        "longitude": 3.2553
    },
    {
        "urn_id": "ACoAADF3UsgBCmay_6B1d2vjN2mwB8tiCYZzWYg",
        "distance": "DISTANCE_1",
        "jobtitle": "Intern at LEAD School Data Analyst | Ex-Intern @RSA | CSE @VIT'23(Vellore) | Python| MS Excel | PowerBI",
        "location": "Surat",
        "name": "Hemang Vekariya",
        "latitude": 45.9383,
        "longitude": 3.2553
    },
    {
        "urn_id": "ACoAADK_YOUBBR7DrY2LXxMnMb_f1CFB027NiYY",
        "distance": "DISTANCE_1",
        "jobtitle": "Data Analyst | Learning from Industry Leaders",
        "location": "Anand",
        "name": "Malav Patel",
        "latitude": 22.5586555,
        "longitude": 72.9627227
    },
    {
        "urn_id": "ACoAADBnoUABr6h_czDjvYhSmzlwAS7zGtLVMsc",
        "distance": "DISTANCE_1",
        "jobtitle": "Thomson Reuters | Data analyst at BISAG-N",
        "location": "Ahmedabad",
        "name": "DEVARSH PATEL",
        "latitude": 23.0216238,
        "longitude": 72.5797068
    },
    {
        "urn_id": "ACoAADDpNu4BQZZFFR3EnoxISfRiZpY8UMVSKuc",
        "distance": "DISTANCE_1",
        "jobtitle": "Intern @motorola solutions| CHARUSAT '24 | Application Developer | Machine Learning",
        "location": "Bengaluru",
        "name": "Raj Kaneriya",
        "latitude": 12.9767936,
        "longitude": 77.590082
    },
    {
        "urn_id": "ACoAAD1TJC0BCQTTm-mjJ1qkm93byuduLQFZwFw",
        "distance": "DISTANCE_1",
        "jobtitle": "Student at Charusat University || computer science student || Actively looking for opportunities in data science and ML",
        "location": "Surat",
        "name": "Jenish Vekariya",
        "latitude": 45.9383,
        "longitude": 3.2553
    },
    {
        "urn_id": "ACoAADDi9C4BoopCDLC1Kp38WQihJos7QwNhETw",
        "distance": "DISTANCE_1",
        "jobtitle": "BVM EC'23 | LDCE \"VLSI Design\" | Digital Electronics | Verilog | SystemVerilog",
        "location": "Bhavnagar",
        "name": "Tarak Patel",
        "latitude": 21.7718836,
        "longitude": 72.1416449
    },
    {
        "urn_id": "ACoAACwxBMIBIT0XO39mqVg6OQyHCRejLArJA6A",
        "distance": "DISTANCE_1",
        "jobtitle": "Data Science & Analytics at Bajaj Finserv",
        "location": "Pune",
        "name": "Hitesh Narang",
        "latitude": 18.521428,
        "longitude": 73.8544541
    },
    {
        "urn_id": "ACoAADUKuJwBGxqZLbr0CCW0eZsL1b8w60f44Fk",
        "distance": "DISTANCE_1",
        "jobtitle": "ML || DL || LLM || LangChain || Opensource Contributor || Ex-Student Coordinator @SAP-CodeUnnati || Ex-Intern @HexaCoder Tech.",
        "location": "Mehsana",
        "name": "Sapnil Patel",
        "latitude": 23.6015557,
        "longitude": 72.3867981
    },
    {
        "urn_id": "ACoAADEK4SYB_6ef7D_W_IV_Gi2H4XwA9rFfD6g",
        "distance": "DISTANCE_1",
        "jobtitle": "Student at Gujarat Technological University",
        "location": "Ahmedabad",
        "name": "Karan Kathrani",
        "latitude": 23.0216238,
        "longitude": 72.5797068
    },
    {
        "urn_id": "ACoAADlc9GAB2KrgtGzJ9Knl1KvqW1zG9JovorA",
        "distance": "DISTANCE_1",
        "jobtitle": "Data Analytics Trainee at Squirrel Softech Services Pvt Ltd.",
        "location": "Ahmedabad",
        "name": "Darshan Chauhan",
        "latitude": 23.0216238,
        "longitude": 72.5797068
    },
    {
        "urn_id": "ACoAADJtKnMBT2jct_z1cnElyNmcDyxx6sbCgUk",
        "distance": "DISTANCE_1",
        "jobtitle": "Entrepreneur",
        "location": "Ahmedabad",
        "name": "Bhavya Shah",
        "latitude": 23.0216238,
        "longitude": 72.5797068
    },
    {
        "urn_id": "ACoAADU-o0kBoZLRAuxH86kVa-zfjVuLe4ltdkw",
        "distance": "DISTANCE_1",
        "jobtitle": "AWS CLOUD CLUB CAPTAIN | 1X AWS certified | 3X Azure certified | cloud enthusiastic | DevOps | Python | 1X SAP certified. Ex intern at @motorola solutions.",
        "location": "Surat",
        "name": "Viraj Patoliya",
        "latitude": 45.9383,
        "longitude": 3.2553
    },
    {
        "urn_id": "ACoAADPUitEBtaP9tnBM8jAjtrZfHqL4B7raRLM",
        "distance": "DISTANCE_1",
        "jobtitle": "Skilled Software Developer with a Passion for Quality Results and Innovative Technologies",
        "location": "Vadodara",
        "name": "Aesha Patel",
        "latitude": 22.2973142,
        "longitude": 73.1942567
    },
    {
        "urn_id": "ACoAADj3xkgBYY7aVOL8n19IEVR-qYqf2VKLe14",
        "distance": "DISTANCE_1",
        "jobtitle": "Pursuing Master Of Computer Applications",
        "location": "Ahmedabad",
        "name": "Jaykrut Kotadiya",
        "latitude": 23.0216238,
        "longitude": 72.5797068
    },
    {
        "urn_id": "ACoAAD_JzIQB9lqBgo-JzRViFWUradXF75EWStw",
        "distance": "DISTANCE_1",
        "jobtitle": "Student | 4 x Microsoft certified | web enthusiast | charusat | frontend developer",
        "location": "Mehsana",
        "name": "Pranshu Patel",
        "latitude": 23.6015557,
        "longitude": 72.3867981
    },
    {
        "urn_id": "ACoAADY3XuABCa1Yn7fv7zsMiSMGq0aSP3hI8M4",
        "distance": "DISTANCE_1",
        "jobtitle": "Data beats emotions!",
        "location": "Vadodara",
        "name": "Nishant (Neil) Limbachiya",
        "latitude": 22.2973142,
        "longitude": 73.1942567
    },
    {
        "urn_id": "ACoAADrjW80BQOuV5QtAYviGxfASPKhzYwflAys",
        "distance": "DISTANCE_1",
        "jobtitle": "Student at CHAROTAR UNIVERSITY OF SCIENCE AND TECHNOLOGY",
        "location": "Ahmedabad",
        "name": "Yatish Devlekar",
        "latitude": 23.0216238,
        "longitude": 72.5797068
    },
    {
        "urn_id": "ACoAADimkHgBUUMN-MPYoRFm9ufDs1NGmO-iyzk",
        "distance": "DISTANCE_1",
        "jobtitle": "1X AWS CERTIFIED || 1X AZURE CERTIFIED || Cloud Enthusiast",
        "location": "Rajkot",
        "name": "Mihir Patel",
        "latitude": 22.3053263,
        "longitude": 70.8028377
    },
    {
        "urn_id": "ACoAAC8qbqIB7DcTzDh5-PICyEyB---UkBSyJcs",
        "distance": "DISTANCE_1",
        "jobtitle": "SDE at PropReturns (YC S21)",
        "location": "Mumbai",
        "name": "Tushar Agarwal",
        "latitude": 19.0815772,
        "longitude": 72.8866275
    },
    {
        "urn_id": "ACoAACsZDVgBy70xxGpYUpDbq9-AkvPfxn_RUqY",
        "distance": "DISTANCE_1",
        "jobtitle": "Data Science | Machine Learning | Computer Vision | Natural Language Processing | Deep Learning | Artificial Intelligence | Amazon Aws | Google Cloud Platform | Microsoft Azure",
        "location": "Mumbai",
        "name": "Yash Patel",
        "latitude": 19.0815772,
        "longitude": 72.8866275
    },
    {
        "urn_id": "ACoAADVCuscBXqdIasgd7TILSrKQVoPk0jEJ0o8",
        "distance": "DISTANCE_1",
        "jobtitle": "Java Certified Developer || Coding enthusiast || DevOps || pytest || python || Automation",
        "location": "Vadodara",
        "name": "Rushit Mehta",
        "latitude": 22.2973142,
        "longitude": 73.1942567
    },
    {
        "urn_id": "ACoAADqC_fEBfoRXKyOAFr4_7fpDseHHSTr_UyY",
        "distance": "DISTANCE_1",
        "jobtitle": "young neuroscientist\ud83e\udde0",
        "location": "Modasa",
        "name": "Chandra-Shruti Patel",
        "latitude": 23.4634245,
        "longitude": 73.2990631
    },
    {
        "urn_id": "ACoAADQuNbEB-vL2D_NA_R3K6mfWisRLfukMeVc",
        "distance": "DISTANCE_1",
        "jobtitle": "Python Developer (AI-ML) Intern | AI - ML | Full Stack | Cloud | Aspiring Data Engineer | Student at Charotar University Of Science And Technology",
        "location": "Vadodara",
        "name": "Sahil Patel",
        "latitude": 22.2973142,
        "longitude": 73.1942567
    },
    {
        "urn_id": "ACoAADVSUkABw_eyFo2Us98-eChtcf3ulOb8xOs",
        "distance": "DISTANCE_1",
        "jobtitle": "Student at CHAROTAR UNIVERSITY OF SCIENCE AND TECHNOLOGY",
        "location": "Ahmedabad",
        "name": "Aayush Ramanuj",
        "latitude": 23.0216238,
        "longitude": 72.5797068
    },
    {
        "urn_id": "ACoAADLMXYcBasnR0jedNm3bXcHKF_N-P86o8Ts",
        "distance": "DISTANCE_1",
        "jobtitle": "AWS Certified (CLF-C02) | Azure Certified (AI-900) | NPTEL Certified (Cloud Computing) | 2x Oracle Certified | IT enthusiast who is exploring cloud computing and mobile development",
        "location": "Anand",
        "name": "Dhaval Chhayla",
        "latitude": 22.5586555,
        "longitude": 72.9627227
    },
    {
        "urn_id": "ACoAADYkYq8BuA6-jRcv6t4SEsTKcYmNX7TnuUw",
        "distance": "DISTANCE_1",
        "jobtitle": "Student at CHAROTAR UNIVERSITY OF SCIENCE AND TECHNOLOGY || DATA SCIENCE ENTHUSIAST || MARKETING AND BUSSINESS EXPLORER",
        "location": "Surat",
        "name": "Om Sorathiya",
        "latitude": 45.9383,
        "longitude": 3.2553
    },
    {
        "urn_id": "ACoAACc6Pz8BSCSDWvY8M66WgN5E6ZyWJO83QUY",
        "distance": "DISTANCE_1",
        "jobtitle": "Team Leader specializing in Machine Learning, AI, Data Science, Django, Flask, AWS, Chat GPT, and Prompt Engineering at Thinkbiz Technology (VeBuin)",
        "location": "Surat",
        "name": "Akshat Shah",
        "latitude": 45.9383,
        "longitude": 3.2553
    },
    {
        "urn_id": "ACoAADJNsaEBxsLNr_al7rPa0EUyY8YSZlF6A-c",
        "distance": "DISTANCE_1",
        "jobtitle": "Mobile Developer (Android flutter)",
        "location": "Ahmedabad",
        "name": "Stuti Bhavsar",
        "latitude": 23.0216238,
        "longitude": 72.5797068
    },
    {
        "urn_id": "ACoAAB-94RgB7YyUvqHRFRsDtr23WjLVQWvshEg",
        "distance": "DISTANCE_1",
        "jobtitle": "SAP SD | TCSer",
        "location": "Ahmedabad",
        "name": "Deep Kamani",
        "latitude": 23.0216238,
        "longitude": 72.5797068
    },
    {
        "urn_id": "ACoAADxTtXIBa-OhJ9D4WFz0KI0V4vgEED37nHQ",
        "distance": "DISTANCE_1",
        "jobtitle": "Acquiring a B.Tech. degree in Computer Engineering",
        "location": "Porbandar",
        "name": "Dhruvi Ladani",
        "latitude": 21.6409,
        "longitude": 69.611
    },
    {
        "urn_id": "ACoAADKqIrcB8feTXNpv4RP2eD53qoSkDay7rgs",
        "distance": "DISTANCE_1",
        "jobtitle": "Cypress || Automation Testing || Manual Testing",
        "location": "Ahmedabad",
        "name": "Savan Babariya",
        "latitude": 23.0216238,
        "longitude": 72.5797068
    },
    {
        "urn_id": "ACoAAC8l1AoBZQjETE-j0c8QR0TADOwDZlTNnEA",
        "distance": "DISTANCE_1",
        "jobtitle": "Data Scientist | Machine Learning Engineer | Game Developer.",
        "location": "Surat",
        "name": "Arin Gujarati",
        "latitude": 45.9383,
        "longitude": 3.2553
    },
    {
        "urn_id": "ACoAADhUKKQBS0Xhn7ELiTlXaA1iC4IRvxR20a0",
        "distance": "DISTANCE_1",
        "jobtitle": "Business Development Executive Intern",
        "location": "Anand",
        "name": "Aryan Thaker",
        "latitude": 22.5586555,
        "longitude": 72.9627227
    },
    {
        "urn_id": "ACoAADRvTVwBFSqZTyhMT4b5KF-wmZk5j1rH1_I",
        "distance": "DISTANCE_1",
        "jobtitle": "Currently Student at P P SAVANI UNIVERSITY | B.Tech CSE-AI&ML | AI ML Enthusiast | Data Science | GradDip-CE | Learner",
        "location": "Surat",
        "name": "Om Kanpariya",
        "latitude": 45.9383,
        "longitude": 3.2553
    },
    {
        "urn_id": "ACoAADUo_J0BS03gDmm9ZMIf0TOuAJb77OdfbcQ",
        "distance": "DISTANCE_1",
        "jobtitle": "1x AWS Certified | 2x MICROSOFT Certified | AWS Cloud Enthusiast | MERN Stack Developer",
        "location": "Rajkot",
        "name": "Shrey Vegad",
        "latitude": 22.3053263,
        "longitude": 70.8028377
    },
    {
        "urn_id": "ACoAADi_tCQBZG4zfgsB5UQMsdiphbU4VYDUGkY",
        "distance": "DISTANCE_1",
        "jobtitle": "IT STUDENT",
        "location": "Vadodara",
        "name": "Dhruv Panpalia",
        "latitude": 22.2973142,
        "longitude": 73.1942567
    },
    {
        "urn_id": "ACoAADPlFzoBjG7KN3f0bEeyGsYEjLmDkZjco64",
        "distance": "DISTANCE_1",
        "jobtitle": "Graduate Trainee @CIVICA INDIA|| GSSoC'23 || Ex Intern @Hexacoder Technologies pvt. ltd",
        "location": "Mehsana",
        "name": "Ayush Patel",
        "latitude": 23.6015557,
        "longitude": 72.3867981
    },
    {
        "urn_id": "ACoAADJuXxYBJgK_Hal4Kk-nOtM5OAMlA-xkzxs",
        "distance": "DISTANCE_1",
        "jobtitle": "--",
        "location": "Ahmedabad",
        "name": "Manan Patel",
        "latitude": 23.0216238,
        "longitude": 72.5797068
    },
    {
        "urn_id": "ACoAADVZLEcBS3pub0wgNXPRZhLCngChhMR9U1Q",
        "distance": "DISTANCE_1",
        "jobtitle": "Driving YouTube Excellence: SEO Specialist\ud83d\udcca\ud83d\udcaf, Growth Manager\ud83d\ude80, and Marketer Extraordinaire \ud83d\udcc8 Diving into the world of #YouTube, exploring #YouTubeGrowth, #ContentCreation, #ContentMarketing, and #YouTubeMarketing.",
        "location": "Surat",
        "name": "Hiren Kakadiya",
        "latitude": 45.9383,
        "longitude": 3.2553
    },
    {
        "urn_id": "ACoAADZBkCIBTxql-CzeZbntyjFvFD7PtqkYTcw",
        "distance": "DISTANCE_1",
        "jobtitle": "Pursuing Degree In Information Technology",
        "location": "Bhavnagar",
        "name": "Darshil Dhandhiya",
        "latitude": 21.7718836,
        "longitude": 72.1416449
    },
    {
        "urn_id": "ACoAADq-N8gBJnK8zsFjyrgZZLH54e1LmhRoDhQ",
        "distance": "DISTANCE_1",
        "jobtitle": "Student at CHAROTAR UNIVERSITY OF SCIENCE AND TECHNOLOGY",
        "location": "Nadiad",
        "name": "Jay Prajapati",
        "latitude": 22.6895535,
        "longitude": 72.8713603
    },
    {
        "urn_id": "ACoAAEB8fTUB0oPqCITUcg-DSduGmJ7Ausu--xo",
        "distance": "DISTANCE_1",
        "jobtitle": "Attended ITM SLS BARODA UNIVERSITY",
        "location": "Godhra",
        "name": "Patel Ghanshyam",
        "latitude": 22.7785001,
        "longitude": 73.6245157
    },
    {
        "urn_id": "ACoAACw1iOEB8P2UFEziEiSEN__h1txmXDphj98",
        "distance": "DISTANCE_1",
        "jobtitle": "Odoo Developer at Captivea India",
        "location": "Mahemdavad",
        "name": "Karan Gandhi",
        "latitude": 22.8245152,
        "longitude": 72.7533562
    },
    {
        "urn_id": "ACoAADb5URcBglRcXg8I0J0Juk9v9cjkYAF7O5c",
        "distance": "DISTANCE_1",
        "jobtitle": "Pre-Final Year CSE | Data Science | LLMs | Machine Learning | AI | Azure | Python Development",
        "location": "Morbi",
        "name": "Ahmed Ansari",
        "latitude": 22.8176662,
        "longitude": 70.8345928
    },
    {
        "urn_id": "ACoAAC-hS0oBrzBSC2vVQKBA6lt2mNpT2uXgUNw",
        "distance": "DISTANCE_1",
        "jobtitle": "Software Engineer & Web Designer | Open to Opportunities & Collaboration | Crafting Digital Experiences",
        "location": "Bhavnagar",
        "name": "Ninad Vyas",
        "latitude": 21.7718836,
        "longitude": 72.1416449
    },
    {
        "urn_id": "ACoAADUxzDQBVy8q9w4652ByUeiMqeFPZaw6q2A",
        "distance": "DISTANCE_1",
        "jobtitle": "student at Smt. Chandaben Mohanbhai Patel Institute of Computer Applications",
        "location": "Surat",
        "name": "Tirth Bhingradiya",
        "latitude": 45.9383,
        "longitude": 3.2553
    },
    {
        "urn_id": "ACoAADpyrr0Bz9O6DQRBoWX0c1WcIKnTWmZ8qdc",
        "distance": "DISTANCE_1",
        "jobtitle": "Beta @Microsoft LSA | Google DSC Graphics Lead '22-23 | HackerEarth Campus Ambassador (HECA) | Aspiring Data Analyst | ML Enthusiast | Student at Shree Swaminarayan Institute of Technology",
        "location": "Ahmedabad",
        "name": "Vivek Manglani",
        "latitude": 23.0216238,
        "longitude": 72.5797068
    },
    {
        "urn_id": "ACoAACADhOUBUQLBkU9fz1Fyaulj56zKpePNaKM",
        "distance": "DISTANCE_1",
        "jobtitle": "Software Engineer | Frontend Developer | ReactJS | JavaScript | TypeScript",
        "location": "Gandhinagar",
        "name": "Shubham Vaidya",
        "latitude": 23.2232877,
        "longitude": 72.6492267
    },
    {
        "urn_id": "ACoAADTdURoBSUuuReWki8EPm5f6RsY3I84Y8JA",
        "distance": "DISTANCE_1",
        "jobtitle": "DevOps Engineer | AWS Certified Cloud Practitioner | Cloud Enthusiast | Information Technology Student",
        "location": "Ahmedabad",
        "name": "Harnil Shah",
        "latitude": 23.0216238,
        "longitude": 72.5797068
    },
    {
        "urn_id": "ACoAADUCdPYB3OJD8JQ_ifBHLj99NjnYiLuPrJU",
        "distance": "DISTANCE_1",
        "jobtitle": "Web developer",
        "location": "Surat",
        "name": "Bhavin Khunt",
        "latitude": 45.9383,
        "longitude": 3.2553
    },
    {
        "urn_id": "ACoAACzO0LUBF2vuXIbFaRAYe0vHZ4JEUXotWOI",
        "distance": "DISTANCE_1",
        "jobtitle": "Splunk Technical Support Engineer at Crest Data Systems | Entrepreneur Lead | Splunk",
        "location": "Rajkot",
        "name": "Meet Tank",
        "latitude": 22.3053263,
        "longitude": 70.8028377
    },
    {
        "urn_id": "ACoAADXxLEkBnW98W8qN09kTMxnejV9gNs3tzTA",
        "distance": "DISTANCE_1",
        "jobtitle": "| Node JS Developer |",
        "location": "Jamnagar",
        "name": "Viral Limbani",
        "latitude": 22.4732415,
        "longitude": 70.0552102
    },
    {
        "urn_id": "ACoAACsMZi0Bjn9RKTomZyJ0I6POH1wbLvsGMrE",
        "distance": "DISTANCE_1",
        "jobtitle": "PPO Holder at ITC Limited | MBA (Marketing) 22-24 | B.E. (Mechatronics) 17-21",
        "location": "Navsari",
        "name": "Jash Kansara",
        "latitude": 20.952407,
        "longitude": 72.9323831
    },
    {
        "urn_id": "ACoAADaOIXQBQl8pyzAfvAJYT7MwoZJO1Z73Kvw",
        "distance": "DISTANCE_1",
        "jobtitle": "SDE Intern at Team Elementals | Proficient in JAVA | Master in Spring Boot | ReactJs | Full Stack Developer",
        "location": "Anand",
        "name": "Anish Mathakiya",
        "latitude": 22.5586555,
        "longitude": 72.9627227
    },
    {
        "urn_id": "ACoAACz_u-0BZGZStt5drStKSq5W-7vidu9cuFI",
        "distance": "DISTANCE_1",
        "jobtitle": "Project Manager | Project Coordinator | Project Lead | Project Planning | Project Implementation | Risk Analysis | Full-Stack Web Developer | Freelancer",
        "location": "Surat",
        "name": "Hetkumar Rajeev Parekh",
        "latitude": 45.9383,
        "longitude": 3.2553
    },
    {
        "urn_id": "ACoAADhQiPABO6haB1Uq3HWpO27PKHwDHuouA84",
        "distance": "DISTANCE_1",
        "jobtitle": "2x Microsoft Certified(AZ-900 & AI-900) | 4x NPTEL Certified | 1x AWS ML Certified | Artificial Intelligence and Machine Learning Enthusiast | Computer Vision | NLP",
        "location": "Valsad",
        "name": "Rinkal Mav",
        "latitude": 20.5,
        "longitude": 73.083333
    },
    {
        "urn_id": "ACoAACmuqj0BQyjYJF_Z2aEDL5-AcrQ7SyBgV5g",
        "distance": "DISTANCE_1",
        "jobtitle": "Flutter Developer, GetX, MVC, IOT , BLE, MQTT, Rest APIs, Firebase, SQLite Database, Socket.io, Pusher, Auth0",
        "location": "Ahmedabad",
        "name": "Jaimin Kavathia",
        "latitude": 23.0216238,
        "longitude": 72.5797068
    },
    {
        "urn_id": "ACoAADU_7aYBwcpRfddISiMwedf7tj-4jSnvLSc",
        "distance": "DISTANCE_1",
        "jobtitle": "Aspiring Data Scientist| Machine Learning| AWS Cloud",
        "location": "Ahmedabad",
        "name": "Dhyey Degda",
        "latitude": 23.0216238,
        "longitude": 72.5797068
    },
    {
        "urn_id": "ACoAADm4Y0cB_LEF3YOOObKzlff132gBEWcMusk",
        "distance": "DISTANCE_1",
        "jobtitle": "Student at CHAROTAR UNIVERSITY OF SCIENCE AND TECHNOLOGY",
        "location": "Surat",
        "name": "Aakash Tadhani",
        "latitude": 45.9383,
        "longitude": 3.2553
    },
    {
        "urn_id": "ACoAACVXhfEBtQwfroY9J1htLVfS1A9mikplDBo",
        "distance": "DISTANCE_1",
        "jobtitle": "Senior Java developer",
        "location": "Gujarat, India",
        "name": "Umesh Bavaliya",
        "latitude": 22.3850051,
        "longitude": 71.745261
    },
    {
        "urn_id": "ACoAADeX7isBVYkA1XAMxacaTGOgrrDtna9N65w",
        "distance": "DISTANCE_1",
        "jobtitle": "NodeJs, ReactJs, MongoDB, SQL\ud83d\udee0\ufe0f | Docker, Git\ud83d\udce6 | Problem solving",
        "location": "Dhrangadhra",
        "name": "Keval Hadiyal",
        "latitude": 22.9914292,
        "longitude": 71.4663753
    },
    {
        "urn_id": "ACoAADf1r3gBskd82YK7AOA69CsROtpISF4kt7A",
        "distance": "DISTANCE_1",
        "jobtitle": "System Building || Business Strategy || Documentation",
        "location": "Surat",
        "name": "Meghavi Shah",
        "latitude": 45.9383,
        "longitude": 3.2553
    },
    {
        "urn_id": "ACoAADVJYpEBCTb-pqUFyjPuHse7AbhOqiZAPzY",
        "distance": "DISTANCE_1",
        "jobtitle": "1x AWS Certified || 1x AZ Certified || DevOps and Cloud Enthusiast",
        "location": "Bhavnagar",
        "name": "Ridham Chavda",
        "latitude": 21.7718836,
        "longitude": 72.1416449
    },
    {
        "urn_id": "ACoAACjBLvkBIEt7CjrUznAKveXewLmVkIJszaY",
        "distance": "DISTANCE_1",
        "jobtitle": "Project Coordinator | Business Analyst | Pre-Sales & Post-Sales | Process Optimization Specialist",
        "location": "Surat",
        "name": "PREM MEHTA",
        "latitude": 45.9383,
        "longitude": 3.2553
    },
    {
        "urn_id": "ACoAADOHtdkBMaxW5XenGXDAS9P4mLXfUa-BiT4",
        "distance": "DISTANCE_1",
        "jobtitle": "Bachelor of Engineering - BE at Government Engineering College (GEC) Bhavnagar",
        "location": "Surat",
        "name": "Dhruvit Mistry",
        "latitude": 45.9383,
        "longitude": 3.2553
    },
    {
        "urn_id": "ACoAADIlGncBxX-UWfA8eLmGdLNR0ScAG9TlyhE",
        "distance": "DISTANCE_1",
        "jobtitle": "Programmer Analyst at Meditab Software (India)",
        "location": "Ahmedabad",
        "name": "Ruchit Shah",
        "latitude": 23.0216238,
        "longitude": 72.5797068
    },
    {
        "urn_id": "ACoAADP9rHoBTzgwSlB6EpbG41B_qqEz5xH3B0o",
        "distance": "DISTANCE_1",
        "jobtitle": "SE Intern @CDS | Ex-GDSC CHARUSAT Web Dev Core | Python | MERN Stack Developer | CHARUSAT CE'24 | Tech Enthusiast | Exploring DevOps",
        "location": "Rajkot",
        "name": "Shubham Sareliya",
        "latitude": 22.3053263,
        "longitude": 70.8028377
    },
    {
        "urn_id": "ACoAADXjR3gBZKvmWmtN3n0zl9JX0T_mJ1jfAis",
        "distance": "DISTANCE_1",
        "jobtitle": "Web Developer",
        "location": "Nadiad",
        "name": "Nidhi Makwana",
        "latitude": 22.6895535,
        "longitude": 72.8713603
    },
    {
        "urn_id": "ACoAAD-oLGgBCnX3F4jJ5QbUkx0U3swu_v-Qbo8",
        "distance": "DISTANCE_1",
        "jobtitle": "Student at CHAROTAR UNIVERSITY OF SCIENCE AND TECHNOLOGY",
        "location": "Vadodara",
        "name": "Vrajesh Shah",
        "latitude": 22.2973142,
        "longitude": 73.1942567
    },
    {
        "urn_id": "ACoAADDthNgBIVajJE_eTOLeNqkXbhyQFwcfNNE",
        "distance": "DISTANCE_1",
        "jobtitle": "Associate Software Engineering at Jeavio | Full stack developer",
        "location": "Surat",
        "name": "Niyam Muliya",
        "latitude": 45.9383,
        "longitude": 3.2553
    },
    {
        "urn_id": "ACoAADWljgEBh7ULwtGpOhNbvD83mVejQ7_Vij4",
        "distance": "DISTANCE_1",
        "jobtitle": "BE IT | SCET | ML",
        "location": "Surat Taluka",
        "name": "Vaishnavi Patel",
        "latitude": 21.2094892,
        "longitude": 72.8317058
    },
    {
        "urn_id": "ACoAADrypFIBlHmZ_WujPQxyzA3xZsq4FVs0ki0",
        "distance": "DISTANCE_1",
        "jobtitle": "Future Cybersecurity Leader | Computer Science Enthusiast | Committed to Fortifying Digital Resilience \ud83d\udcbc\ud83d\udcbb #CyberSecurity #TechInnovation\"",
        "location": "Vadodara",
        "name": "Harsh Shah",
        "latitude": 22.2973142,
        "longitude": 73.1942567
    },
    {
        "urn_id": "ACoAAD4iEZsByRMt9k3x5RBMGd5O26nKJ7RFdhw",
        "distance": "DISTANCE_1",
        "jobtitle": "Software Engineer | React Native",
        "location": "Surat",
        "name": "Dhruvin mavani",
        "latitude": 45.9383,
        "longitude": 3.2553
    },
    {
        "urn_id": "ACoAAC69IIgBGg-WaMv3dgzMJHMbvXj4huE0JAI",
        "distance": "DISTANCE_1",
        "jobtitle": "Frontend Developer | Specializing in React, Redux, JavaScript and TypeScript | Strong Communicator",
        "location": "Ahmedabad",
        "name": "Rushi Chudasama",
        "latitude": 23.0216238,
        "longitude": 72.5797068
    },
    {
        "urn_id": "ACoAADrMIIQBdtojjDu7qX3LU0BiKqPjKTH0DbA",
        "distance": "DISTANCE_1",
        "jobtitle": "Web-Dev | DevOps | 1x Microsoft Certified",
        "location": "Junagadh",
        "name": "Abhishek Butani",
        "latitude": 21.5220416,
        "longitude": 70.4582458
    },
    {
        "urn_id": "ACoAADQEUVkBAoZdI-FeJqr12-xJOnRNNdjWl_Q",
        "distance": "DISTANCE_1",
        "jobtitle": "2\u00d7Microsoft certified||computer science and engineering||Machine Learning Enthusiast",
        "location": "Gujarat, India",
        "name": "Ayush Patel",
        "latitude": 22.3850051,
        "longitude": 71.745261
    },
    {
        "urn_id": "ACoAADK4RcUBQgMuptkY_2X0YpwK2PHOWLtCNuc",
        "distance": "DISTANCE_1",
        "jobtitle": "Front-end developer intern at Solvative Passionate about building dynamic web applications and creating seamless user experiences.",
        "location": "Vadodara",
        "name": "Himani Shah",
        "latitude": 22.2973142,
        "longitude": 73.1942567
    },
    {
        "urn_id": "ACoAAD5L1qkBC9FDT3z8cPqcD489071dR0iye9o",
        "distance": "DISTANCE_1",
        "jobtitle": "Student of Computer Engineering at CHAROTAR UNIVERSITY OF SCIENCE AND TECHNOLOGY",
        "location": "Anand",
        "name": "Mahek Parmar",
        "latitude": 22.5586555,
        "longitude": 72.9627227
    },
    {
        "urn_id": "ACoAACar_FwBwMuDLz3umoUPeDn-No3yVry4NOA",
        "distance": "DISTANCE_1",
        "jobtitle": "Director at Blacia Exports || Partner at Blacia Ceramics || Partner at Aditya Healthcare",
        "location": "Rajkot",
        "name": "Shrey Parekh",
        "latitude": 22.3053263,
        "longitude": 70.8028377
    },
    {
        "urn_id": "ACoAACIgfOoBUEeAFm6FWFuWqVWJGG22GqXOw5c",
        "distance": "DISTANCE_1",
        "jobtitle": "Software Engineer",
        "location": "Khambhalia",
        "name": "Yash Pabari",
        "latitude": 22.2289794,
        "longitude": 69.570894
    },
    {
        "urn_id": "ACoAADTgnJYBH4JN0z3AhMslKEAsyqQAs1J6TVM",
        "distance": "DISTANCE_1",
        "jobtitle": "Data Science enthusiast",
        "location": "Surat",
        "name": "Ankit Thummar",
        "latitude": 45.9383,
        "longitude": 3.2553
    },
    {
        "urn_id": "ACoAADBciGoBxk4PHEIoZpXc9QFzfH55If7QARI",
        "distance": "DISTANCE_1",
        "jobtitle": "GET AT PRISM JOHNSON LIMITED",
        "location": "Ahmedabad",
        "name": "Pruthvi Chaudhary",
        "latitude": 23.0216238,
        "longitude": 72.5797068
    },
    {
        "urn_id": "ACoAAC0VZq0B6fDiAm2odtQgc49rgJuPLVN59QA",
        "distance": "DISTANCE_1",
        "jobtitle": "Cloud Infrastructure Engineer || 2X AWS|| 1X Google || 2X Microsoft || Terraform Associate || FinOps Practitioner",
        "location": "Surat",
        "name": "Harsh Viradia",
        "latitude": 45.9383,
        "longitude": 3.2553
    },
    {
        "urn_id": "ACoAADlB_WoBlO6d6Mfkw9AO-BIz6DAGGKvlCxM",
        "distance": "DISTANCE_1",
        "jobtitle": "CSE (pursuing) || Web development || Ui/Ux || Machine Learning",
        "location": "Gujarat, India",
        "name": "aditi vadi",
        "latitude": 22.3850051,
        "longitude": 71.745261
    },
    {
        "urn_id": "ACoAAD-_R1YBEhoGtEkFOAlOHI_hrszQIIRNZJs",
        "distance": "DISTANCE_1",
        "jobtitle": "Computer Engineering | \u269b\ufe0f REACT JS | \ud83c\udf10 Node/Express Js | \ud83d\ude80 FullSTACK WEB DEVELOPER | \ud83d\udc0d DJANGO | C++ | Creative Problem-Solver | Dedicated to Driving Technological Advancements & User-Centric Design",
        "location": "Anand",
        "name": "Kashyap Rathod",
        "latitude": 22.5586555,
        "longitude": 72.9627227
    },
    {
        "urn_id": "ACoAAC8NYgEBC3fUg6n88QEikTgMnnwaawfqq-Y",
        "distance": "DISTANCE_1",
        "jobtitle": "Associate Power BI Developer @Celebal Technologies | B Tech CSE 2019-23 @ CHARUSAT | AI/ML Enthusiast",
        "location": "Ahmedabad",
        "name": "Dhruvalkumar Shah",
        "latitude": 23.0216238,
        "longitude": 72.5797068
    },
    {
        "urn_id": "ACoAADregPcBRXFS_LfvxB_pAWJWoNB_bG6pL7U",
        "distance": "DISTANCE_1",
        "jobtitle": "Problem Solver | GDSC Core Team | Flutter Developer | Machine Learning | CSPIT '25",
        "location": "Rajkot",
        "name": "Harshal Makwana",
        "latitude": 22.3053263,
        "longitude": 70.8028377
    },
    {
        "urn_id": "ACoAAEAbOboB805ZTBVdxfWYdX1argaRIAXt7l0",
        "distance": "DISTANCE_1",
        "jobtitle": "Frontend Developer || React JS || JavaScript || Node JS",
        "location": "Anand",
        "name": "Aary Shah",
        "latitude": 22.5586555,
        "longitude": 72.9627227
    },
    {
        "urn_id": "ACoAADVIcHUB9vxM2gnLjgn2hbzdjwvaiTuvPdc",
        "distance": "DISTANCE_1",
        "jobtitle": "Devops Engineer||Graphic Designer||Cloud Academy Member|| Software Developer ||web Analytics|| 1x Oracle Associate || 1x Azure Certified|| Data Analytics",
        "location": "Anand",
        "name": "SHIV PATEL",
        "latitude": 22.5586555,
        "longitude": 72.9627227
    },
    {
        "urn_id": "ACoAADJvnPYBfLQULM283Qx98Dnoz3k3l3VjqBo",
        "distance": "DISTANCE_1",
        "jobtitle": "Final year Student at Charotar University of Science & Technology (CHARUSAT)",
        "location": "Ahmedabad",
        "name": "Tirth Shah",
        "latitude": 23.0216238,
        "longitude": 72.5797068
    },
    {
        "urn_id": "ACoAAD2ZJ1IBEHAyhvzXa5kbh3NFglIMr55THxw",
        "distance": "DISTANCE_1",
        "jobtitle": "WEB DEVELOPMENT ,DATA SCIENCE ENTHUSIAST",
        "location": "Ahmedabad",
        "name": "Mit Joshi",
        "latitude": 23.0216238,
        "longitude": 72.5797068
    },
    {
        "urn_id": "ACoAADPlCzUB1X_3CMbQ6C62gTYXyqXx2TPSw20",
        "distance": "DISTANCE_1",
        "jobtitle": "Analytics | Marketing | Consultant",
        "location": "Surat",
        "name": "Kush Desai",
        "latitude": 45.9383,
        "longitude": 3.2553
    },
    {
        "urn_id": "ACoAADQ3Q3MBz9bygf7Bow5YnmNyFhQzlmKnYaw",
        "distance": "DISTANCE_1",
        "jobtitle": "Web Developer || Cloud Computing || 2x Azure Certified",
        "location": "Jamnagar",
        "name": "Dhruv Makadia",
        "latitude": 22.4732415,
        "longitude": 70.0552102
    },